[{"name":"Site characterization of NOPT trials for rice","crop":"Rice","country":"India","sow_date":"12\/31\/1969","longitude":"85.272178","latitude":"25.964764","url":"http:\/\/www.agtrials.org\/tbtrial\/48009"},{"name":"Col-Monteria-Biomasa","crop":"Rice","country":"Colombia","sow_date":"5\/29\/2013","longitude":"-75.854","latitude":"8.811","url":"http:\/\/www.agtrials.org\/tbtrial\/48108"},{"name":"COL-ENSYFOL08B","crop":"Rice","country":"Colombia","sow_date":"11\/6\/2008","longitude":"-76.355851","latitude":"3.502095","url":"http:\/\/www.agtrials.org\/tbtrial\/48174"},{"name":"COL - ENSYTOR07-09 - 1","crop":"Rice","country":"Colombia","sow_date":"10\/24\/2009","longitude":"-76.355851","latitude":"3.502095","url":"http:\/\/www.agtrials.org\/tbtrial\/48176"},{"name":"COL-ENSAYAV08B","crop":"Rice","country":"Colombia","sow_date":"11\/6\/2008","longitude":"-76.355851","latitude":"3.502095","url":"http:\/\/www.agtrials.org\/tbtrial\/48177"},{"name":"COL - ENSYTOR07-09 - 2","crop":"Rice","country":"Colombia","sow_date":"11\/29\/2007","longitude":"-76.355851","latitude":"3.502095","url":"http:\/\/www.agtrials.org\/tbtrial\/48178"},{"name":"COL-ENSYPROM8B","crop":"Rice","country":"Colombia","sow_date":"11\/6\/2008","longitude":"-76.355851","latitude":"3.502095","url":"http:\/\/www.agtrials.org\/tbtrial\/48181"},{"name":"COL-ENSYOBS8B","crop":"Rice","country":"Colombia","sow_date":"11\/6\/2008","longitude":"-76.355851","latitude":"3.502095","url":"http:\/\/www.agtrials.org\/tbtrial\/48182"},{"name":"COL-ENSAYNo.108B","crop":"Rice","country":"Colombia","sow_date":"11\/9\/2008","longitude":"-76.355851","latitude":"3.502095","url":"http:\/\/www.agtrials.org\/tbtrial\/48183"},{"name":"COL-ENSAYNo.208B","crop":"Rice","country":"Colombia","sow_date":"11\/9\/2008","longitude":"-76.355851","latitude":"3.502095","url":"http:\/\/www.agtrials.org\/tbtrial\/48185"},{"name":"COL - ENSAYIIRON09","crop":"Rice","country":"Colombia","sow_date":"10\/26\/2009","longitude":"-76.355851","latitude":"3.502095","url":"http:\/\/www.agtrials.org\/tbtrial\/48186"},{"name":"COL-  ENSYAV10A- Lineas avanzadas con valor nutricional 2010A","crop":"Rice","country":"Colombia","sow_date":"5\/25\/2010","longitude":"-76.355851","latitude":"3.502095","url":"http:\/\/www.agtrials.org\/tbtrial\/48192"},{"name":"COL- Aipe- Mayo 2013- Arroz","crop":"Rice","country":"Colombia","sow_date":"5\/28\/2013","longitude":"-75.141399","latitude":"3.131823","url":"http:\/\/www.agtrials.org\/tbtrial\/48193"},{"name":"COL- Monteria- Mayo 2013- Arroz","crop":"Rice","country":"Colombia","sow_date":"5\/29\/2013","longitude":"-75.530032","latitude":"8.45027","url":"http:\/\/www.agtrials.org\/tbtrial\/48194"},{"name":"COL- Salda\u00f1a- Mayo 2013- Arroz","crop":"Rice","country":"Colombia","sow_date":"4\/29\/2013","longitude":"-75.005195","latitude":"3.554642","url":"http:\/\/www.agtrials.org\/tbtrial\/48195"},{"name":"COL- Santa Rosa- Mayo 2013- Arroz","crop":"Rice","country":"Colombia","sow_date":"5\/12\/2013","longitude":"-73.384115","latitude":"3.363406","url":"http:\/\/www.agtrials.org\/tbtrial\/48196"},{"name":"COL- Yopal- Mayo 2013- Arroz","crop":"Rice","country":"Colombia","sow_date":"5\/11\/2013","longitude":"-72.241992","latitude":"5.204772","url":"http:\/\/www.agtrials.org\/tbtrial\/48197"},{"name":"COL- Aipe_S2-\u00c8nero 2014- Arroz","crop":"Rice","country":"Colombia","sow_date":"1\/4\/2014","longitude":"-75.141399","latitude":"3.131823","url":"http:\/\/www.agtrials.org\/tbtrial\/48198"},{"name":"COL- Monteria_S2-Noviembre 2013- Arroz","crop":"Rice","country":"Colombia","sow_date":"11\/13\/2013","longitude":"-75.530032","latitude":"8.45027","url":"http:\/\/www.agtrials.org\/tbtrial\/48199"},{"name":"COL- Salda\u00f1a_S2-Dic 2013- Arroz","crop":"Rice","country":"Colombia","sow_date":"12\/5\/2013","longitude":"-75.005195","latitude":"3.554642","url":"http:\/\/www.agtrials.org\/tbtrial\/48200"},{"name":"COL- Santa Rosa_S2-\u00c8nero 2014- Arroz","crop":"Rice","country":"Colombia","sow_date":"1\/2\/2014","longitude":"-73.384115","latitude":"3.363406","url":"http:\/\/www.agtrials.org\/tbtrial\/48201"},{"name":"COL- Yopal_S2-Noviembre 2013- Arroz","crop":"Rice","country":"Colombia","sow_date":"11\/13\/2013","longitude":"-72.241992","latitude":"5.204772","url":"http:\/\/www.agtrials.org\/tbtrial\/48202"},{"name":"Brazil_porangatu_2006","crop":"Rice","country":"Brazil","sow_date":"11\/6\/2006","longitude":"-49.15","latitude":"-13.44","url":"http:\/\/www.agtrials.org\/tbtrial\/4107"},{"name":"Consumer Sensory Tests","crop":"Rice","country":"Benin","sow_date":"8\/31\/2009","longitude":"1.015556","latitude":"10.480833","url":"http:\/\/www.agtrials.org\/tbtrial\/942"},{"name":"Reactions And Resistance Status Of Rice Genotypes Of Rymv","crop":"Rice","country":"Cote D'Ivoire","sow_date":"4\/1\/2002","longitude":"-5.1","latitude":"7.5","url":"http:\/\/www.agtrials.org\/tbtrial\/943"},{"name":"Insect Vector Screening Method For Develpment Of Durable Resistant Cultivars To Rymv","crop":"Rice","country":"Nigeria","sow_date":"3\/1\/2007","longitude":"3.9","latitude":"7.433333","url":"http:\/\/www.agtrials.org\/tbtrial\/945"},{"name":"Use Of Marker-assisted Selection For Yield And Yield Components Of Rice ","crop":"Rice","country":"Gambia","sow_date":"6\/8\/2000","longitude":"-14.85","latitude":"13.55","url":"http:\/\/www.agtrials.org\/tbtrial\/1269"},{"name":"Comparison Of Rice Grain Quality Of Imported Varieties, Local Varieties With New Varieties Adopted In Benin","crop":"Rice","country":"Benin","sow_date":"10\/1\/2009","longitude":"2.328889","latitude":"6.419722","url":"http:\/\/www.agtrials.org\/tbtrial\/1271"},{"name":"Characteristic For The Rice Cultivation In Africa And Superior Genotypes Of Rice In Stress And Non-stress Environments ","crop":"Rice","country":"Gambia","sow_date":"7\/9\/2001","longitude":"-14.85","latitude":"13.55","url":"http:\/\/www.agtrials.org\/tbtrial\/1272"},{"name":"Continuous Fertility Trials","crop":"Rice","country":"Senegal","sow_date":"3\/1\/1991","longitude":"-16.264167","latitude":"16.200833","url":"http:\/\/www.agtrials.org\/tbtrial\/646"},{"name":"Continuous Fertility Trials","crop":"Rice","country":"Senegal","sow_date":"3\/1\/1991","longitude":"-15.183333","latitude":"16.533333","url":"http:\/\/www.agtrials.org\/tbtrial\/647"},{"name":"Parboiling Methods","crop":"Rice","country":"Benin","sow_date":"3\/1\/2008","longitude":"2.14","latitude":"7.876667","url":"http:\/\/www.agtrials.org\/tbtrial\/648"},{"name":"Consumer Sensory Tests","crop":"Rice","country":"Benin","sow_date":"9\/14\/2009","longitude":"1.260278","latitude":"10.638056","url":"http:\/\/www.agtrials.org\/tbtrial\/650"},{"name":"Consumer Sensory Tests","crop":"Rice","country":"Benin","sow_date":"8\/10\/2009","longitude":"2.328889","latitude":"6.419722","url":"http:\/\/www.agtrials.org\/tbtrial\/652"},{"name":"Mass Rearing Of Diopsis Spp And Artificial Screening For Resistance Of Rice Varieties For Resistance","crop":"Rice","country":"Benin","sow_date":"3\/1\/2008","longitude":"2.328889","latitude":"6.419722","url":"http:\/\/www.agtrials.org\/tbtrial\/653"},{"name":"Etude Des Insectes De Stock De Riz Et Leurs Degats Au Benin","crop":"Rice","country":"Benin","sow_date":"2\/1\/2007","longitude":"2.081944","latitude":"6.735556","url":"http:\/\/www.agtrials.org\/tbtrial\/658"},{"name":"Etude Des Insectes De  Stock De Riz Et Leurs D\u00e9g\u00e2ts Au B\u00e9nin","crop":"Rice","country":"Benin","sow_date":"2\/1\/2007","longitude":"2.628333","latitude":"9.343611","url":"http:\/\/www.agtrials.org\/tbtrial\/663"},{"name":"Ravageurs Cl\u00e9s Des \u00e9cologies Rizicoles Du B\u00e9nin Et Impacts","crop":"Rice","country":"Benin","sow_date":"1\/15\/2006","longitude":"2.279148","latitude":"7.266684","url":"http:\/\/www.agtrials.org\/tbtrial\/687"},{"name":"Variabilit\u00e9 Culturale Et Pathologique Du Champignon Pyricularia Oryzae ","crop":"Rice","country":"Benin","sow_date":"9\/1\/2006","longitude":"2.328889","latitude":"6.419722","url":"http:\/\/www.agtrials.org\/tbtrial\/689"},{"name":" Influence Of N Fertilizer And Planting Density Of Nericas ","crop":"Rice","country":"Benin","sow_date":"4\/26\/2006","longitude":"2.081944","latitude":"6.735556","url":"http:\/\/www.agtrials.org\/tbtrial\/751"},{"name":"Use Of Cover Crops And Rock P On Upland Rice","crop":"Rice","country":"Cote D'Ivoire","sow_date":"4\/1\/2001","longitude":"-5.1","latitude":"7.5","url":"http:\/\/www.agtrials.org\/tbtrial\/752"},{"name":"Possible Existence And Classification Of Different Pathotypes Of Rymv In Mali","crop":"Rice","country":"Mali","sow_date":"4\/1\/2004","longitude":"-8.000556","latitude":"12.650556","url":"http:\/\/www.agtrials.org\/tbtrial\/944"},{"name":"Etude Des Insectes De  Stock De Riz Et Leurs D\u00e9g\u00e2ts Au B\u00e9nin","crop":"Rice","country":"Benin","sow_date":"2\/1\/2007","longitude":"1.666944","latitude":"7.080278","url":"http:\/\/www.agtrials.org\/tbtrial\/662"},{"name":"Yield Performance Experiments","crop":"Rice","country":"Senegal","sow_date":"7\/1\/2004","longitude":"-16.264167","latitude":"16.200833","url":"http:\/\/www.agtrials.org\/tbtrial\/634"},{"name":"Yield Performance Experiments","crop":"Rice","country":"Senegal","sow_date":"7\/1\/2004","longitude":"-15.183333","latitude":"16.533333","url":"http:\/\/www.agtrials.org\/tbtrial\/635"},{"name":"International Rice Soil Stress Tolerance  Nursery 2005\/set 6","crop":"Rice","country":"India","sow_date":"6\/29\/2005","longitude":"82.2375","latitude":"27.30861111","url":"http:\/\/www.agtrials.org\/tbtrial\/2986"},{"name":"International Rice Soil Stress Tolerance  Nursery 2005\/set 33","crop":"Rice","country":"Bangladesh","sow_date":"4\/18\/2005","longitude":"91.442778","latitude":"22.860556","url":"http:\/\/www.agtrials.org\/tbtrial\/2988"},{"name":"International Rice Soil Stress Tolerance  Nursery 2005\/set 34","crop":"Rice","country":"Bangladesh","sow_date":"11\/20\/2005","longitude":"89.1","latitude":"22.716667","url":"http:\/\/www.agtrials.org\/tbtrial\/2989"},{"name":"International Temperate Rice Observational Nursery 2005\/set 9","crop":"Rice","country":"Pakistan","sow_date":"5\/24\/2005","longitude":"72.366667","latitude":"34.783333","url":"http:\/\/www.agtrials.org\/tbtrial\/2991"},{"name":"International Temperate Rice Observational Nursery 2005\/set 29","crop":"Rice","country":"Bangladesh","sow_date":"11\/15\/2005","longitude":"90.407778","latitude":"23.990833","url":"http:\/\/www.agtrials.org\/tbtrial\/2992"},{"name":"International Upland Rice Observational Nursery 2005\/set 1","crop":"Rice","country":"India","sow_date":"9\/20\/2005","longitude":"78.36666667","latitude":"9.35","url":"http:\/\/www.agtrials.org\/tbtrial\/2993"},{"name":"International Upland Rice Observational Nursery 2005\/set 3","crop":"Rice","country":"India","sow_date":"7\/27\/2005","longitude":"81.295833","latitude":"24.54","url":"http:\/\/www.agtrials.org\/tbtrial\/2994"},{"name":"International Upland Rice Observational Nursery 2005\/set 4","crop":"Rice","country":"India","sow_date":"10\/7\/2005","longitude":"73.46","latitude":"22.627","url":"http:\/\/www.agtrials.org\/tbtrial\/2995"},{"name":"International Upland Rice Observational Nursery 2005\/set 5","crop":"Rice","country":"India","sow_date":"7\/1\/2005","longitude":"91.913056","latitude":"25.684167","url":"http:\/\/www.agtrials.org\/tbtrial\/2996"},{"name":"International Upland Rice Observational Nursery 2005\/set 29","crop":"Rice","country":"Nepal","sow_date":"6\/29\/2005","longitude":"85.92","latitude":"26.73","url":"http:\/\/www.agtrials.org\/tbtrial\/2997"},{"name":"International Upland Rice Observational Nursery 2005\/set 37","crop":"Rice","country":"Bangladesh","sow_date":"4\/25\/2005","longitude":"90.407778","latitude":"23.990833","url":"http:\/\/www.agtrials.org\/tbtrial\/2998"},{"name":"Rice Garden 15-01-2007","crop":"Rice","country":"Senegal","sow_date":"1\/15\/2007","longitude":"-15.183333","latitude":"16.533333","url":"http:\/\/www.agtrials.org\/tbtrial\/4108"},{"name":"Rice Garden 15-02-2006","crop":"Rice","country":"Senegal","sow_date":"2\/15\/2006","longitude":"-15.183333","latitude":"16.533333","url":"http:\/\/www.agtrials.org\/tbtrial\/4110"},{"name":"Rice Garden 15-02-2007","crop":"Rice","country":"Senegal","sow_date":"2\/15\/2007","longitude":"-15.183333","latitude":"16.533333","url":"http:\/\/www.agtrials.org\/tbtrial\/4111"},{"name":"Rice Garden 15-03-2006","crop":"Rice","country":"Senegal","sow_date":"3\/15\/2006","longitude":"-15.183333","latitude":"16.533333","url":"http:\/\/www.agtrials.org\/tbtrial\/4112"},{"name":"Rice Garden 15-03-2007","crop":"Rice","country":"Senegal","sow_date":"3\/15\/2007","longitude":"-15.183333","latitude":"16.533333","url":"http:\/\/www.agtrials.org\/tbtrial\/4113"},{"name":"Rice Garden 15-04-2006","crop":"Rice","country":"Senegal","sow_date":"4\/15\/2006","longitude":"-15.183333","latitude":"16.533333","url":"http:\/\/www.agtrials.org\/tbtrial\/4114"},{"name":"Rice Garden 15-04-2007","crop":"Rice","country":"Senegal","sow_date":"4\/15\/2007","longitude":"-15.183333","latitude":"16.533333","url":"http:\/\/www.agtrials.org\/tbtrial\/4115"},{"name":"Rice Garden 15-05-2006","crop":"Rice","country":"Senegal","sow_date":"5\/15\/2006","longitude":"-15.183333","latitude":"16.533333","url":"http:\/\/www.agtrials.org\/tbtrial\/4116"},{"name":"Rice Garden 15-06-2006","crop":"Rice","country":"Senegal","sow_date":"6\/15\/2006","longitude":"-15.183333","latitude":"16.533333","url":"http:\/\/www.agtrials.org\/tbtrial\/4117"},{"name":"Rice Garden 15-07-2006","crop":"Rice","country":"Senegal","sow_date":"7\/15\/2006","longitude":"-15.183333","latitude":"16.533333","url":"http:\/\/www.agtrials.org\/tbtrial\/4118"},{"name":"Rice Garden 15-08-2006","crop":"Rice","country":"Senegal","sow_date":"8\/15\/2006","longitude":"-15.183333","latitude":"16.533333","url":"http:\/\/www.agtrials.org\/tbtrial\/4119"},{"name":"Rice Garden 15-09-2006","crop":"Rice","country":"Senegal","sow_date":"9\/15\/2006","longitude":"-15.183333","latitude":"16.533333","url":"http:\/\/www.agtrials.org\/tbtrial\/4120"},{"name":"Rice Garden 15-10-2006","crop":"Rice","country":"Senegal","sow_date":"10\/15\/2006","longitude":"-15.183333","latitude":"16.533333","url":"http:\/\/www.agtrials.org\/tbtrial\/4121"},{"name":"Rice Garden 15-11-2006","crop":"Rice","country":"Senegal","sow_date":"11\/15\/2006","longitude":"-15.183333","latitude":"16.533333","url":"http:\/\/www.agtrials.org\/tbtrial\/4122"},{"name":"Rice Garden 15-12-2006","crop":"Rice","country":"Senegal","sow_date":"12\/15\/2006","longitude":"-15.183333","latitude":"16.533333","url":"http:\/\/www.agtrials.org\/tbtrial\/4123"},{"name":"Rice Garden 15-01-2007","crop":"Rice","country":"Senegal","sow_date":"1\/15\/2007","longitude":"-16.264167","latitude":"16.200833","url":"http:\/\/www.agtrials.org\/tbtrial\/4124"},{"name":"Rice Garden 15-02-2006","crop":"Rice","country":"Senegal","sow_date":"2\/15\/2006","longitude":"-16.264167","latitude":"16.200833","url":"http:\/\/www.agtrials.org\/tbtrial\/4125"},{"name":"Rice Garden 15-02-2007","crop":"Rice","country":"Senegal","sow_date":"2\/15\/2007","longitude":"-16.264167","latitude":"16.200833","url":"http:\/\/www.agtrials.org\/tbtrial\/4126"},{"name":"Rice Garden 15-03-2006","crop":"Rice","country":"Senegal","sow_date":"3\/15\/2006","longitude":"-16.264167","latitude":"16.200833","url":"http:\/\/www.agtrials.org\/tbtrial\/4127"},{"name":"Rice Garden 15-03-2007","crop":"Rice","country":"Senegal","sow_date":"3\/15\/2007","longitude":"-16.264167","latitude":"16.200833","url":"http:\/\/www.agtrials.org\/tbtrial\/4128"},{"name":"Rice Garden 15-04-2006","crop":"Rice","country":"Senegal","sow_date":"4\/15\/2006","longitude":"-16.264167","latitude":"16.200833","url":"http:\/\/www.agtrials.org\/tbtrial\/4129"},{"name":"Rice Garden 15-04-2007","crop":"Rice","country":"Senegal","sow_date":"4\/15\/2007","longitude":"-16.264167","latitude":"16.200833","url":"http:\/\/www.agtrials.org\/tbtrial\/4131"},{"name":"Rice Garden 15-05-2006","crop":"Rice","country":"Senegal","sow_date":"5\/15\/2006","longitude":"-16.264167","latitude":"16.200833","url":"http:\/\/www.agtrials.org\/tbtrial\/4132"},{"name":"Rice Garden 15-06-'06","crop":"Rice","country":"Senegal","sow_date":"6\/15\/2006","longitude":"-16.264167","latitude":"16.200833","url":"http:\/\/www.agtrials.org\/tbtrial\/4133"},{"name":"Rice Garden 15-07-2006","crop":"Rice","country":"Senegal","sow_date":"7\/15\/2006","longitude":"-16.264167","latitude":"16.200833","url":"http:\/\/www.agtrials.org\/tbtrial\/4134"},{"name":"Rice Garden 15-08-2006","crop":"Rice","country":"Senegal","sow_date":"8\/15\/2006","longitude":"-16.264167","latitude":"16.200833","url":"http:\/\/www.agtrials.org\/tbtrial\/4135"},{"name":"Rice Garden 15-09-2006","crop":"Rice","country":"Senegal","sow_date":"9\/15\/2006","longitude":"-16.264167","latitude":"16.200833","url":"http:\/\/www.agtrials.org\/tbtrial\/4136"},{"name":"Rice Garden 15-10-2006","crop":"Rice","country":"Senegal","sow_date":"10\/15\/2006","longitude":"-16.264167","latitude":"16.200833","url":"http:\/\/www.agtrials.org\/tbtrial\/4137"},{"name":"Rice Garden 15-11-2006","crop":"Rice","country":"Senegal","sow_date":"11\/15\/2006","longitude":"-16.264167","latitude":"16.200833","url":"http:\/\/www.agtrials.org\/tbtrial\/4138"},{"name":"Rice Garden 15-12-2006","crop":"Rice","country":"Senegal","sow_date":"12\/15\/2006","longitude":"-16.264167","latitude":"16.200833","url":"http:\/\/www.agtrials.org\/tbtrial\/4139"},{"name":"International Rice Soil Stress Tolerance  Nursery 2006\/set 9","crop":"Rice","country":"India","sow_date":"6\/10\/2006","longitude":"76.4275","latitude":"9.435833","url":"http:\/\/www.agtrials.org\/tbtrial\/1890"},{"name":"International Rice Soil Stress Tolerance  Nursery 2006\/set 11","crop":"Rice","country":"India","sow_date":"6\/16\/2006","longitude":"85.939722","latitude":"20.450833","url":"http:\/\/www.agtrials.org\/tbtrial\/1891"},{"name":"International Rice Soil Stress Tolerance  Nursery 2006\/set 14","crop":"Rice","country":"India","sow_date":"6\/7\/2006","longitude":"77.449722","latitude":"8.211111","url":"http:\/\/www.agtrials.org\/tbtrial\/1892"},{"name":"International Rice Soil Stress Tolerance  Nursery 2006\/set 28","crop":"Rice","country":"Sri Lanka","sow_date":"5\/8\/2006","longitude":"81.014653","latitude":"6.123274","url":"http:\/\/www.agtrials.org\/tbtrial\/1893"},{"name":"International Rice Soil Stress Tolerance  Nursery 2006\/set 38","crop":"Rice","country":"Bangladesh","sow_date":"7\/1\/2006","longitude":"90.407778","latitude":"23.990833","url":"http:\/\/www.agtrials.org\/tbtrial\/1894"},{"name":"International Rice Soil Stress Tolerance Nursery - Module 1a 2006\/set 8","crop":"Rice","country":"Bangladesh","sow_date":"7\/1\/2006","longitude":"90.407778","latitude":"23.990833","url":"http:\/\/www.agtrials.org\/tbtrial\/1896"},{"name":"International Rice Soil Stress Tolerance Nursery - Module 1a 2006\/set 9","crop":"Rice","country":"India","sow_date":"6\/16\/2006","longitude":"85.939722","latitude":"20.450833","url":"http:\/\/www.agtrials.org\/tbtrial\/1897"},{"name":"International Rice Soil Stress Tolerance Nursery - Module 1a 2006\/set 11","crop":"Rice","country":"India","sow_date":"5\/25\/2006","longitude":"76.953056","latitude":"29.708056","url":"http:\/\/www.agtrials.org\/tbtrial\/1898"},{"name":"International Rice Soil Stress Tolerance Nursery - Module 1a 2006\/set 19","crop":"Rice","country":"Bangladesh","sow_date":"11\/15\/2006","longitude":"90.407778","latitude":"23.990833","url":"http:\/\/www.agtrials.org\/tbtrial\/1899"},{"name":"International Rice Soil Stress Tolerance Nursery - Module 1a 2006\/set 30","crop":"Rice","country":"India","sow_date":"6\/7\/2006","longitude":"77.449722","latitude":"8.211111","url":"http:\/\/www.agtrials.org\/tbtrial\/1900"},{"name":"International Temperate Rice Observational Nursery 2006\/set 3","crop":"Rice","country":"India","sow_date":"5\/11\/2006","longitude":"75.094167","latitude":"33.720833","url":"http:\/\/www.agtrials.org\/tbtrial\/1901"},{"name":"International Temperate Rice Observational Nursery 2006\/set 8","crop":"Rice","country":"Pakistan","sow_date":"5\/25\/2006","longitude":"72.366667","latitude":"34.783333","url":"http:\/\/www.agtrials.org\/tbtrial\/1902"},{"name":"International Temperate Rice Observational Nursery 2006\/set 16","crop":"Rice","country":"Nepal","sow_date":"7\/16\/2006","longitude":"85.92","latitude":"26.73","url":"http:\/\/www.agtrials.org\/tbtrial\/1903"},{"name":"International Temperate Rice Observational Nursery 2006\/set 23","crop":"Rice","country":"Bangladesh","sow_date":"12\/28\/2006","longitude":"89.25","latitude":"25.75","url":"http:\/\/www.agtrials.org\/tbtrial\/1904"},{"name":"International Temperate Rice Observational Nursery 2006\/set 24","crop":"Rice","country":"Bangladesh","sow_date":"11\/29\/2006","longitude":"90.407778","latitude":"23.990833","url":"http:\/\/www.agtrials.org\/tbtrial\/1905"},{"name":"International Upland Rice Observational Nursery 2006\/set 1","crop":"Rice","country":"India","sow_date":"6\/5\/2006","longitude":"79.643889","latitude":"29.589167","url":"http:\/\/www.agtrials.org\/tbtrial\/1906"},{"name":"International Upland Rice Observational Nursery 2006\/set 2","crop":"Rice","country":"India","sow_date":"6\/28\/2006","longitude":"73.46","latitude":"22.627","url":"http:\/\/www.agtrials.org\/tbtrial\/1907"},{"name":"International Upland Rice Observational Nursery 2006\/set 5","crop":"Rice","country":"India","sow_date":"7\/17\/2006","longitude":"82.2375","latitude":"27.30861111","url":"http:\/\/www.agtrials.org\/tbtrial\/1908"},{"name":"International Upland Rice Observational Nursery 2006\/set 9","crop":"Rice","country":"India","sow_date":"6\/13\/2006","longitude":"88.369167","latitude":"22.896389","url":"http:\/\/www.agtrials.org\/tbtrial\/1909"},{"name":"International Upland Rice Observational Nursery 2006\/set 19","crop":"Rice","country":"Nepal","sow_date":"6\/21\/2006","longitude":"85.92","latitude":"26.73","url":"http:\/\/www.agtrials.org\/tbtrial\/1910"},{"name":"International Upland Rice Observational Nursery 2006\/set 20","crop":"Rice","country":"Nepal","sow_date":"7\/15\/2006","longitude":"81.625833","latitude":"28.060278","url":"http:\/\/www.agtrials.org\/tbtrial\/1911"},{"name":"International Upland Rice Observational Nursery 2006\/set 34","crop":"Rice","country":"Bangladesh","sow_date":"4\/16\/2006","longitude":"90.407778","latitude":"23.990833","url":"http:\/\/www.agtrials.org\/tbtrial\/1912"},{"name":"International Irrigated Rice Observational Nursery - Module 1 2005\/set 1","crop":"Rice","country":"India","sow_date":"8\/2\/2005","longitude":"76.99442","latitude":"11.1176","url":"http:\/\/www.agtrials.org\/tbtrial\/2961"},{"name":"International Irrigated Rice Observational Nursery - Module 1 2005\/set 3","crop":"Rice","country":"India","sow_date":"6\/30\/2005","longitude":"81.295833","latitude":"24.54","url":"http:\/\/www.agtrials.org\/tbtrial\/2962"},{"name":"International Irrigated Rice Observational Nursery - Module 1 2005\/set 4","crop":"Rice","country":"India","sow_date":"6\/22\/2005","longitude":"72.583333","latitude":"22.8","url":"http:\/\/www.agtrials.org\/tbtrial\/2963"},{"name":"International Irrigated Rice Observational Nursery - Module 1 2005\/set 8","crop":"Rice","country":"India","sow_date":"7\/4\/2005","longitude":"79.516667","latitude":"29.05","url":"http:\/\/www.agtrials.org\/tbtrial\/2964"},{"name":"International Irrigated Rice Observational Nursery - Module 1 2005\/set 17","crop":"Rice","country":"Pakistan","sow_date":"5\/24\/2005","longitude":"73.24166667","latitude":"34.13777778","url":"http:\/\/www.agtrials.org\/tbtrial\/2965"},{"name":"International Irrigated Rice Observational Nursery - Module 1 2005\/set 18","crop":"Rice","country":"Pakistan","sow_date":"5\/24\/2005","longitude":"72.366667","latitude":"34.783333","url":"http:\/\/www.agtrials.org\/tbtrial\/2966"},{"name":"International Irrigated Rice Observational Nursery - Module 1 2005\/set 19","crop":"Rice","country":"Pakistan","sow_date":"6\/7\/2005","longitude":"68.09673","latitude":"27.37427","url":"http:\/\/www.agtrials.org\/tbtrial\/2967"},{"name":"International Irrigated Rice Observational Nursery - Module 1 2005\/set 47","crop":"Rice","country":"Sri Lanka","sow_date":"11\/8\/2005","longitude":"80.4367","latitude":"7.5333","url":"http:\/\/www.agtrials.org\/tbtrial\/2968"},{"name":"International Irrigated Rice Observational Nursery - Module 1 2005\/set 58","crop":"Rice","country":"Bangladesh","sow_date":"11\/24\/2005","longitude":"91.164808","latitude":"23.442498","url":"http:\/\/www.agtrials.org\/tbtrial\/2969"},{"name":"International Irrigated Rice Observational Nursery - Module 1 2005\/set 59","crop":"Rice","country":"Bangladesh","sow_date":"11\/15\/2005","longitude":"90.407778","latitude":"23.990833","url":"http:\/\/www.agtrials.org\/tbtrial\/2970"},{"name":"International Rice Bacterial Blight Nursery 2005\/set 1","crop":"Rice","country":"India","sow_date":"9\/6\/2005","longitude":"76.99442","latitude":"11.1176","url":"http:\/\/www.agtrials.org\/tbtrial\/2971"},{"name":"International Rice Bacterial Blight Nursery 2005\/set 2","crop":"Rice","country":"India","sow_date":"7\/2\/2005","longitude":"85.133056","latitude":"25.590833","url":"http:\/\/www.agtrials.org\/tbtrial\/2972"},{"name":"International Rice Bacterial Blight Nursery 2005\/set 20","crop":"Rice","country":"Bangladesh","sow_date":"7\/24\/2005","longitude":"90.407778","latitude":"23.990833","url":"http:\/\/www.agtrials.org\/tbtrial\/2974"},{"name":"International Rice Bacterial Blight Nursery 2005\/set 23","crop":"Rice","country":"India","sow_date":"7\/10\/2005","longitude":"81.745833","latitude":"16.63","url":"http:\/\/www.agtrials.org\/tbtrial\/2975"},{"name":"International Rice Bacterial Blight Nursery 2005\/set 25","crop":"Rice","country":"India","sow_date":"6\/24\/2005","longitude":"79.516667","latitude":"29.05","url":"http:\/\/www.agtrials.org\/tbtrial\/2976"},{"name":"International Rice Bacterial Blight Nursery 2005\/set 26","crop":"Rice","country":"India","sow_date":"6\/29\/2005","longitude":"78.392778","latitude":"17.321111","url":"http:\/\/www.agtrials.org\/tbtrial\/2977"},{"name":"International Rice Bacterial Blight Nursery 2005\/set 27","crop":"Rice","country":"India","sow_date":"6\/22\/2005","longitude":"76.666667","latitude":"29.85","url":"http:\/\/www.agtrials.org\/tbtrial\/2978"},{"name":"International Rice Brown Planthopper Nursery 2005\/set 1","crop":"Rice","country":"India","sow_date":"7\/6\/2005","longitude":"81.745833","latitude":"16.63","url":"http:\/\/www.agtrials.org\/tbtrial\/2979"},{"name":"International Rice Brown Planthopper Nursery 2005\/set 12","crop":"Rice","country":"Sri Lanka","sow_date":"9\/6\/2005","longitude":"80.4367","latitude":"7.5333","url":"http:\/\/www.agtrials.org\/tbtrial\/2981"},{"name":"International Rainfed Lowland Rice Observational Nursery 2005\/set 15","crop":"Rice","country":"Sri Lanka","sow_date":"10\/10\/2005","longitude":"80.016667","latitude":"6.583333","url":"http:\/\/www.agtrials.org\/tbtrial\/2982"},{"name":"International Rainfed Lowland Rice Observational Nursery 2005\/set 18","crop":"Rice","country":"Nepal","sow_date":"6\/28\/2005","longitude":"85.92","latitude":"26.73","url":"http:\/\/www.agtrials.org\/tbtrial\/2983"},{"name":"International Rainfed Lowland Rice Observational Nursery 2005\/set 28","crop":"Rice","country":"Bangladesh","sow_date":"7\/12\/2005","longitude":"90.407778","latitude":"23.990833","url":"http:\/\/www.agtrials.org\/tbtrial\/2984"},{"name":"International Rice Soil Stress Tolerance  Nursery 2005\/set 1","crop":"Rice","country":"India","sow_date":"7\/11\/2005","longitude":"88.666944","latitude":"22.303333","url":"http:\/\/www.agtrials.org\/tbtrial\/2985"},{"name":"International Irrigated Rice Observational Nursery - Module 2 2007\/set 13","crop":"Rice","country":"India","sow_date":"6\/15\/2007","longitude":"79.643889","latitude":"29.589167","url":"http:\/\/www.agtrials.org\/tbtrial\/1799"},{"name":"International Irrigated Rice Observational Nursery - Module 2 2007\/set 14","crop":"Rice","country":"India","sow_date":"5\/31\/2007","longitude":"76.666667","latitude":"29.85","url":"http:\/\/www.agtrials.org\/tbtrial\/1800"},{"name":"International Irrigated Rice Observational Nursery - Module 2 2007\/set 15","crop":"Rice","country":"India","sow_date":"6\/25\/2007","longitude":"88.369167","latitude":"22.896389","url":"http:\/\/www.agtrials.org\/tbtrial\/1801"},{"name":"International Irrigated Rice Observational Nursery - Module 2 2007\/set 16","crop":"Rice","country":"Pakistan","sow_date":"4\/14\/2007","longitude":"68.09673","latitude":"27.37427","url":"http:\/\/www.agtrials.org\/tbtrial\/1802"},{"name":"International Irrigated Rice Observational Nursery - Module 2 2007\/set 36","crop":"Rice","country":"Nepal","sow_date":"7\/3\/2007","longitude":"85.92","latitude":"26.73","url":"http:\/\/www.agtrials.org\/tbtrial\/1803"},{"name":"International Irrigated Rice Observational Nursery - Module 2 2007\/set 39","crop":"Rice","country":"Sri Lanka","sow_date":"5\/1\/2007","longitude":"80.4367","latitude":"7.5333","url":"http:\/\/www.agtrials.org\/tbtrial\/1804"},{"name":"International Irrigated Rice Observational Nursery - Module 2 2007\/set 53","crop":"Rice","country":"India","sow_date":"6\/27\/2007","longitude":"77.25388889","latitude":"29.05722222","url":"http:\/\/www.agtrials.org\/tbtrial\/1805"},{"name":"International Irrigated Rice Observational Nursery - Module 2 2007\/set 55","crop":"Rice","country":"Bangladesh","sow_date":"11\/16\/2007","longitude":"91.416667","latitude":"24.383333","url":"http:\/\/www.agtrials.org\/tbtrial\/1806"},{"name":"International Rice Bacterial Blight Nursery 2007\/set 1","crop":"Rice","country":"India","sow_date":"6\/23\/2007","longitude":"82.2375","latitude":"27.30861111","url":"http:\/\/www.agtrials.org\/tbtrial\/1807"},{"name":"International Rice Bacterial Blight Nursery 2007\/set 6","crop":"Rice","country":"India","sow_date":"6\/7\/2007","longitude":"76.666667","latitude":"29.85","url":"http:\/\/www.agtrials.org\/tbtrial\/1808"},{"name":"International Rice Bacterial Blight Nursery 2007\/set 21","crop":"Rice","country":"Sri Lanka","sow_date":"7\/18\/2007","longitude":"81.014653","latitude":"6.123274","url":"http:\/\/www.agtrials.org\/tbtrial\/1810"},{"name":"International Rice Bacterial Blight Nursery 2007\/set 25","crop":"Rice","country":"India","sow_date":"6\/22\/2007","longitude":"88.369167","latitude":"22.896389","url":"http:\/\/www.agtrials.org\/tbtrial\/1811"},{"name":"International Rice Bacterial Blight Nursery 2007\/set 26","crop":"Rice","country":"India","sow_date":"7\/19\/2007","longitude":"85.375556","latitude":"23.996111","url":"http:\/\/www.agtrials.org\/tbtrial\/1812"},{"name":"International Boro Rice Observational Nursery 2007\/set 2","crop":"Rice","country":"India","sow_date":"12\/30\/2006","longitude":"88.369167","latitude":"22.896389","url":"http:\/\/www.agtrials.org\/tbtrial\/1814"},{"name":"International Boro Rice Observational Nursery 2007\/set 21","crop":"Rice","country":"Bangladesh","sow_date":"12\/3\/2007","longitude":"90.407778","latitude":"23.990833","url":"http:\/\/www.agtrials.org\/tbtrial\/1815"},{"name":"International Rice Brown Planthopper Nursery 2007\/set 16","crop":"Rice","country":"Pakistan","sow_date":"7\/1\/2007","longitude":"85.92","latitude":"26.73","url":"http:\/\/www.agtrials.org\/tbtrial\/1816"},{"name":"International Rice Brown Planthopper Nursery 2007\/set 23","crop":"Rice","country":"Bangladesh","sow_date":"8\/1\/2007","longitude":"90.407778","latitude":"23.990833","url":"http:\/\/www.agtrials.org\/tbtrial\/1818"},{"name":"International Rainfed Lowland Rice Observational Nursery 2007\/set 1","crop":"Rice","country":"India","sow_date":"7\/3\/2007","longitude":"82.2375","latitude":"27.30861111","url":"http:\/\/www.agtrials.org\/tbtrial\/1819"},{"name":"International Rainfed Lowland Rice Observational Nursery 2007\/set 4","crop":"Rice","country":"India","sow_date":"6\/25\/2007","longitude":"81.704444","latitude":"21.236111","url":"http:\/\/www.agtrials.org\/tbtrial\/1821"},{"name":"International Rainfed Lowland Rice Observational Nursery 2007\/set 12","crop":"Rice","country":"Nepal","sow_date":"7\/4\/2007","longitude":"85.92","latitude":"26.73","url":"http:\/\/www.agtrials.org\/tbtrial\/1822"},{"name":"International Rainfed Lowland Rice Observational Nursery 2007\/set 16","crop":"Rice","country":"Sri Lanka","sow_date":"5\/8\/2007","longitude":"80.016667","latitude":"6.583333","url":"http:\/\/www.agtrials.org\/tbtrial\/1823"},{"name":"International Rainfed Lowland Rice Observational Nursery 2007\/set 20","crop":"Rice","country":"India","sow_date":"7\/3\/2007","longitude":"81.6","latitude":"27.583333","url":"http:\/\/www.agtrials.org\/tbtrial\/1824"},{"name":"International Rainfed Lowland Rice Observational Nursery 2007\/set 21","crop":"Rice","country":"Bangladesh","sow_date":"7\/4\/2007","longitude":"90.407778","latitude":"23.990833","url":"http:\/\/www.agtrials.org\/tbtrial\/1825"},{"name":"International Rainfed Lowland Rice Observational Nursery 2007\/set 23","crop":"Rice","country":"India","sow_date":"6\/26\/2007","longitude":"77.25388889","latitude":"29.05722222","url":"http:\/\/www.agtrials.org\/tbtrial\/1826"},{"name":"International Rainfed Lowland Rice Observational Nursery 2007\/set 25","crop":"Rice","country":"India","sow_date":"8\/1\/2007","longitude":"75.9275","latitude":"12.155278","url":"http:\/\/www.agtrials.org\/tbtrial\/1827"},{"name":"International Rice Soil Stress Tolerance  Nursery 2007\/set 1","crop":"Rice","country":"India","sow_date":"6\/25\/2007","longitude":"82.2375","latitude":"27.30861111","url":"http:\/\/www.agtrials.org\/tbtrial\/1828"},{"name":"International Rice Soil Stress Tolerance  Nursery 2007\/set 3","crop":"Rice","country":"India","sow_date":"7\/14\/2007","longitude":"88.369167","latitude":"22.896389","url":"http:\/\/www.agtrials.org\/tbtrial\/1829"},{"name":"International Rice Soil Stress Tolerance  Nursery 2007\/set 29","crop":"Rice","country":"Sri Lanka","sow_date":"5\/23\/2007","longitude":"81.014653","latitude":"6.123274","url":"http:\/\/www.agtrials.org\/tbtrial\/1830"},{"name":"International Rice Soil Stress Tolerance  Nursery 2007\/set 43","crop":"Rice","country":"Bangladesh","sow_date":"12\/11\/2007","longitude":"89.1","latitude":"22.716667","url":"http:\/\/www.agtrials.org\/tbtrial\/1832"},{"name":"International Rice Soil Stress Tolerance  Nursery 2007\/set 44","crop":"Rice","country":"Bangladesh","sow_date":"12\/11\/2007","longitude":"90.4","latitude":"24.75","url":"http:\/\/www.agtrials.org\/tbtrial\/1833"},{"name":"International Rice Soil Stress Tolerance Nursery - Module 1a 2007\/set 3","crop":"Rice","country":"Bangladesh","sow_date":"7\/14\/2007","longitude":"90.407778","latitude":"23.990833","url":"http:\/\/www.agtrials.org\/tbtrial\/1834"},{"name":"International Rice Soil Stress Tolerance Nursery - Module 1a 2007\/set 4","crop":"Rice","country":"Bangladesh","sow_date":"7\/15\/2007","longitude":"90.4","latitude":"24.75","url":"http:\/\/www.agtrials.org\/tbtrial\/1835"},{"name":"International Rice Soil Stress Tolerance Nursery - Module 2a 2007\/set 1","crop":"Rice","country":"India","sow_date":"5\/28\/2007","longitude":"76.953056","latitude":"29.708056","url":"http:\/\/www.agtrials.org\/tbtrial\/1836"},{"name":"International Rice Soil Stress Tolerance Nursery - Module 2a 2007\/set 3","crop":"Rice","country":"India","sow_date":"6\/14\/2007","longitude":"81.6","latitude":"27.583333","url":"http:\/\/www.agtrials.org\/tbtrial\/1837"},{"name":"International Rice Soil Stress Tolerance Nursery - Module 2a 2007\/set 13","crop":"Rice","country":"Bangladesh","sow_date":"11\/27\/2007","longitude":"90.407778","latitude":"23.990833","url":"http:\/\/www.agtrials.org\/tbtrial\/1838"},{"name":"International Rice Soil Stress Tolerance Nursery - Module 2a 2007\/set 14","crop":"Rice","country":"Bangladesh","sow_date":"12\/11\/2007","longitude":"90.4","latitude":"24.75","url":"http:\/\/www.agtrials.org\/tbtrial\/1839"},{"name":"International Temperate Rice Observational Nursery 2007\/set 1","crop":"Rice","country":"India","sow_date":"6\/1\/2007","longitude":"74.816667","latitude":"34.083333","url":"http:\/\/www.agtrials.org\/tbtrial\/1840"},{"name":"International Temperate Rice Observational Nursery 2007\/set 17","crop":"Rice","country":"Nepal","sow_date":"7\/8\/2007","longitude":"85.92","latitude":"26.73","url":"http:\/\/www.agtrials.org\/tbtrial\/1841"},{"name":"International Temperate Rice Observational Nursery 2007\/set 27","crop":"Rice","country":"Bangladesh","sow_date":"11\/5\/2007","longitude":"89.25","latitude":"25.75","url":"http:\/\/www.agtrials.org\/tbtrial\/1842"},{"name":"International Upland Rice Observational Nursery 2007\/set 1","crop":"Rice","country":"India","sow_date":"7\/10\/2007","longitude":"81.295833","latitude":"24.54","url":"http:\/\/www.agtrials.org\/tbtrial\/1843"},{"name":"International Upland Rice Observational Nursery 2007\/set 2","crop":"Rice","country":"India","sow_date":"6\/26\/2007","longitude":"82.2375","latitude":"27.30861111","url":"http:\/\/www.agtrials.org\/tbtrial\/1844"},{"name":"International Upland Rice Observational Nursery 2007\/set 6","crop":"Rice","country":"India","sow_date":"6\/20\/2007","longitude":"79.643889","latitude":"29.589167","url":"http:\/\/www.agtrials.org\/tbtrial\/1845"},{"name":"International Upland Rice Observational Nursery 2007\/set 9","crop":"Rice","country":"India","sow_date":"7\/10\/2007","longitude":"77.25388889","latitude":"29.05722222","url":"http:\/\/www.agtrials.org\/tbtrial\/1846"},{"name":"International Upland Rice Observational Nursery 2007\/set 20","crop":"Rice","country":"Nepal","sow_date":"6\/25\/2007","longitude":"85.92","latitude":"26.73","url":"http:\/\/www.agtrials.org\/tbtrial\/1847"},{"name":"International Upland Rice Observational Nursery 2007\/set 35","crop":"Rice","country":"Bangladesh","sow_date":"4\/15\/2007","longitude":"90.407778","latitude":"23.990833","url":"http:\/\/www.agtrials.org\/tbtrial\/1848"},{"name":"International Irrigated Rice Observational Nursery - Module 1 2006\/set 1","crop":"Rice","country":"India","sow_date":"5\/27\/2006","longitude":"79.643889","latitude":"29.589167","url":"http:\/\/www.agtrials.org\/tbtrial\/1849"},{"name":"International Irrigated Rice Observational Nursery - Module 1 2006\/set 3","crop":"Rice","country":"India","sow_date":"6\/27\/2006","longitude":"72.583333","latitude":"22.8","url":"http:\/\/www.agtrials.org\/tbtrial\/1850"},{"name":"International Irrigated Rice Observational Nursery - Module 1 2006\/set 6","crop":"Rice","country":"India","sow_date":"6\/9\/2006","longitude":"79.516667","latitude":"29.05","url":"http:\/\/www.agtrials.org\/tbtrial\/1851"},{"name":"International Irrigated Rice Observational Nursery - Module 1 2006\/set 8","crop":"Rice","country":"India","sow_date":"6\/20\/2006","longitude":"82.2375","latitude":"27.30861111","url":"http:\/\/www.agtrials.org\/tbtrial\/1852"},{"name":"International Irrigated Rice Observational Nursery - Module 1 2006\/set 13","crop":"Rice","country":"India","sow_date":"7\/1\/2006","longitude":"81.295833","latitude":"24.54","url":"http:\/\/www.agtrials.org\/tbtrial\/1855"},{"name":"International Irrigated Rice Observational Nursery - Module 1 2006\/set 14","crop":"Rice","country":"India","sow_date":"6\/16\/2006","longitude":"88.369167","latitude":"22.896389","url":"http:\/\/www.agtrials.org\/tbtrial\/1856"},{"name":"International Irrigated Rice Observational Nursery - Module 1 2006\/set 16","crop":"Rice","country":"Pakistan","sow_date":"5\/23\/2006","longitude":"73.24166667","latitude":"34.13777778","url":"http:\/\/www.agtrials.org\/tbtrial\/1857"},{"name":"International Irrigated Rice Observational Nursery - Module 1 2006\/set 17","crop":"Rice","country":"Pakistan","sow_date":"6\/15\/2006","longitude":"68.09673","latitude":"27.37427","url":"http:\/\/www.agtrials.org\/tbtrial\/1858"},{"name":"International Irrigated Rice Observational Nursery - Module 1 2006\/set 37","crop":"Rice","country":"Sri Lanka","sow_date":"5\/5\/2006","longitude":"80.4367","latitude":"7.5333","url":"http:\/\/www.agtrials.org\/tbtrial\/1859"},{"name":"International Irrigated Rice Observational Nursery - Module 1 2006\/set 39","crop":"Rice","country":"Nepal","sow_date":"6\/25\/2006","longitude":"85.92","latitude":"26.73","url":"http:\/\/www.agtrials.org\/tbtrial\/1860"},{"name":"International Irrigated Rice Observational Nursery - Module 1 2006\/set 56","crop":"Rice","country":"Bangladesh","sow_date":"4\/21\/2006","longitude":"90.407778","latitude":"23.990833","url":"http:\/\/www.agtrials.org\/tbtrial\/1861"},{"name":"International Irrigated Rice Observational Nursery - Module 2 2006\/set 61","crop":"Rice","country":"India","sow_date":"6\/27\/2006","longitude":"72.583333","latitude":"22.8","url":"http:\/\/www.agtrials.org\/tbtrial\/1862"},{"name":"International Irrigated Rice Observational Nursery - Module 2 2006\/set 64","crop":"Rice","country":"India","sow_date":"6\/9\/2006","longitude":"79.516667","latitude":"29.05","url":"http:\/\/www.agtrials.org\/tbtrial\/1863"},{"name":"International Irrigated Rice Observational Nursery - Module 2 2006\/set 66","crop":"Rice","country":"India","sow_date":"6\/17\/2006","longitude":"82.2375","latitude":"27.30861111","url":"http:\/\/www.agtrials.org\/tbtrial\/1864"},{"name":"International Irrigated Rice Observational Nursery - Module 2 2006\/set 68","crop":"Rice","country":"India","sow_date":"5\/17\/2006","longitude":"75.803889","latitude":"30.903056","url":"http:\/\/www.agtrials.org\/tbtrial\/1865"},{"name":"International Irrigated Rice Observational Nursery - Module 2 2006\/set 71","crop":"Rice","country":"India","sow_date":"6\/16\/2006","longitude":"88.369167","latitude":"22.896389","url":"http:\/\/www.agtrials.org\/tbtrial\/1866"},{"name":"International Irrigated Rice Observational Nursery - Module 2 2006\/set 76","crop":"Rice","country":"Pakistan","sow_date":"5\/22\/2006","longitude":"72.366667","latitude":"34.783333","url":"http:\/\/www.agtrials.org\/tbtrial\/1867"},{"name":"International Irrigated Rice Observational Nursery - Module 2 2006\/set 77","crop":"Rice","country":"Pakistan","sow_date":"6\/15\/2006","longitude":"68.09673","latitude":"27.37427","url":"http:\/\/www.agtrials.org\/tbtrial\/1868"},{"name":"International Irrigated Rice Observational Nursery - Module 2 2006\/set 80","crop":"Rice","country":"Nepal","sow_date":"6\/25\/2006","longitude":"85.92","latitude":"26.73","url":"http:\/\/www.agtrials.org\/tbtrial\/1869"},{"name":"International Irrigated Rice Observational Nursery - Module 2 2006\/set 97","crop":"Rice","country":"Sri Lanka","sow_date":"5\/5\/2006","longitude":"80.4367","latitude":"7.5333","url":"http:\/\/www.agtrials.org\/tbtrial\/1870"},{"name":"International Irrigated Rice Observational Nursery - Module 2 2006\/set 116","crop":"Rice","country":"Bangladesh","sow_date":"4\/21\/2006","longitude":"90.407778","latitude":"23.990833","url":"http:\/\/www.agtrials.org\/tbtrial\/1871"},{"name":"International Rice Blast Nursery 2006\/set 1","crop":"Rice","country":"India","sow_date":"7\/13\/2006","longitude":"79.643889","latitude":"29.589167","url":"http:\/\/www.agtrials.org\/tbtrial\/1872"},{"name":"International Rice Blast Nursery 2006\/set 4","crop":"Rice","country":"India","sow_date":"8\/30\/2006","longitude":"78.392778","latitude":"17.321111","url":"http:\/\/www.agtrials.org\/tbtrial\/1873"},{"name":"International Rice Blast Nursery 2006\/set 5","crop":"Rice","country":"India","sow_date":"8\/30\/2006","longitude":"77.150833","latitude":"28.630278","url":"http:\/\/www.agtrials.org\/tbtrial\/1874"},{"name":"International Rice Blast Nursery 2006\/set 7","crop":"Rice","country":"India","sow_date":"6\/30\/2006","longitude":"85.133056","latitude":"25.590833","url":"http:\/\/www.agtrials.org\/tbtrial\/1875"},{"name":"International Rice Blast Nursery 2006\/set 18","crop":"Rice","country":"Sri Lanka","sow_date":"5\/9\/2006","longitude":"80.016667","latitude":"6.583333","url":"http:\/\/www.agtrials.org\/tbtrial\/1876"},{"name":"International Rice Blast Nursery 2006\/set 21","crop":"Rice","country":"Nepal","sow_date":"8\/14\/2006","longitude":"85.92","latitude":"26.73","url":"http:\/\/www.agtrials.org\/tbtrial\/1877"},{"name":"International Rice Blast Nursery 2006\/set 23","crop":"Rice","country":"Nepal","sow_date":"7\/18\/2006","longitude":"85.92","latitude":"26.73","url":"http:\/\/www.agtrials.org\/tbtrial\/1878"},{"name":"International Rice Blast Nursery 2006\/set 25","crop":"Rice","country":"India","sow_date":"5\/12\/2006","longitude":"75.094167","latitude":"33.720833","url":"http:\/\/www.agtrials.org\/tbtrial\/1879"},{"name":"International Rice Blast Nursery 2006\/set 28","crop":"Rice","country":"Bangladesh","sow_date":"11\/16\/2006","longitude":"90.407778","latitude":"23.990833","url":"http:\/\/www.agtrials.org\/tbtrial\/1880"},{"name":"International Boro Rice Observational Nursery 2006\/set 11","crop":"Rice","country":"Bangladesh","sow_date":"11\/23\/2006","longitude":"91.416667","latitude":"24.383333","url":"http:\/\/www.agtrials.org\/tbtrial\/1881"},{"name":"International Boro Rice Observational Nursery 2006\/set 12","crop":"Rice","country":"Bangladesh","sow_date":"11\/29\/2006","longitude":"90.407778","latitude":"23.990833","url":"http:\/\/www.agtrials.org\/tbtrial\/1882"},{"name":"International Rainfed Lowland Rice Observational Nursery 2006\/set 3","crop":"Rice","country":"India","sow_date":"7\/5\/2006","longitude":"82.2375","latitude":"27.30861111","url":"http:\/\/www.agtrials.org\/tbtrial\/1883"},{"name":"International Rainfed Lowland Rice Observational Nursery 2006\/set 4","crop":"Rice","country":"India","sow_date":"7\/1\/2006","longitude":"81.6","latitude":"27.583333","url":"http:\/\/www.agtrials.org\/tbtrial\/1884"},{"name":"International Rainfed Lowland Rice Observational Nursery 2006\/set 13","crop":"Rice","country":"Nepal","sow_date":"6\/27\/2006","longitude":"85.92","latitude":"26.73","url":"http:\/\/www.agtrials.org\/tbtrial\/1885"},{"name":"International Rainfed Lowland Rice Observational Nursery 2006\/set 22","crop":"Rice","country":"Bangladesh","sow_date":"7\/16\/2006","longitude":"90.407778","latitude":"23.990833","url":"http:\/\/www.agtrials.org\/tbtrial\/1886"},{"name":"International Rice Soil Stress Tolerance  Nursery 2006\/set 2","crop":"Rice","country":"India","sow_date":"5\/25\/2006","longitude":"80.923611","latitude":"26.803056","url":"http:\/\/www.agtrials.org\/tbtrial\/1887"},{"name":"International Rice Soil Stress Tolerance  Nursery 2006\/set 5","crop":"Rice","country":"India","sow_date":"7\/13\/2006","longitude":"88.369167","latitude":"22.896389","url":"http:\/\/www.agtrials.org\/tbtrial\/1888"},{"name":"International Rice Soil Stress Tolerance  Nursery 2006\/set 6","crop":"Rice","country":"India","sow_date":"6\/14\/2006","longitude":"81.835","latitude":"26.540556","url":"http:\/\/www.agtrials.org\/tbtrial\/1889"},{"name":"International Irrigated Rice Observational Nursery - Module 1 2008\/set 28","crop":"Rice","country":"Pakistan","sow_date":"8\/8\/2008","longitude":"68.09673","latitude":"27.37427","url":"http:\/\/www.agtrials.org\/tbtrial\/1706"},{"name":"International Irrigated Rice Observational Nursery - Module 1 2008\/set 30","crop":"Rice","country":"Pakistan","sow_date":"5\/7\/2008","longitude":"73.24166667","latitude":"34.13777778","url":"http:\/\/www.agtrials.org\/tbtrial\/1707"},{"name":"International Irrigated Rice Observational Nursery - Module 1 2008\/set 34","crop":"Rice","country":"Nepal","sow_date":"6\/19\/2008","longitude":"85.92","latitude":"26.73","url":"http:\/\/www.agtrials.org\/tbtrial\/1708"},{"name":"International Irrigated Rice Observational Nursery - Module 1 2008\/set 42","crop":"Rice","country":"Sri Lanka","sow_date":"5\/12\/2008","longitude":"81.014653","latitude":"6.123274","url":"http:\/\/www.agtrials.org\/tbtrial\/1709"},{"name":"International Irrigated Rice Observational Nursery - Module 1 2008\/set 55","crop":"Rice","country":"Bangladesh","sow_date":"4\/20\/2008","longitude":"90.407778","latitude":"23.990833","url":"http:\/\/www.agtrials.org\/tbtrial\/1711"},{"name":"International Irrigated Rice Observational Nursery - Module 1 2008\/set 56","crop":"Rice","country":"Bangladesh","sow_date":"7\/30\/2008","longitude":"90.4","latitude":"24.75","url":"http:\/\/www.agtrials.org\/tbtrial\/1712"},{"name":"International Irrigated Rice Observational Nursery - Module 2 2008\/set 1","crop":"Rice","country":"India","sow_date":"5\/24\/2008","longitude":"75.803889","latitude":"30.903056","url":"http:\/\/www.agtrials.org\/tbtrial\/1713"},{"name":"International Irrigated Rice Observational Nursery - Module 2 2008\/set 3","crop":"Rice","country":"India","sow_date":"5\/26\/2008","longitude":"92.715833","latitude":"11.613889","url":"http:\/\/www.agtrials.org\/tbtrial\/1714"},{"name":"International Irrigated Rice Observational Nursery - Module 2 2008\/set 4","crop":"Rice","country":"India","sow_date":"6\/18\/2008","longitude":"72.583333","latitude":"22.8","url":"http:\/\/www.agtrials.org\/tbtrial\/1715"},{"name":"International Irrigated Rice Observational Nursery - Module 2 2008\/set 5","crop":"Rice","country":"India","sow_date":"6\/12\/2008","longitude":"76.666667","latitude":"29.85","url":"http:\/\/www.agtrials.org\/tbtrial\/1716"},{"name":"International Irrigated Rice Observational Nursery - Module 2 2008\/set 6","crop":"Rice","country":"India","sow_date":"6\/11\/2008","longitude":"79.516667","latitude":"29.05","url":"http:\/\/www.agtrials.org\/tbtrial\/1717"},{"name":"International Irrigated Rice Observational Nursery - Module 2 2008\/set 7","crop":"Rice","country":"India","sow_date":"5\/8\/2008","longitude":"75.094167","latitude":"33.720833","url":"http:\/\/www.agtrials.org\/tbtrial\/1718"},{"name":"International Irrigated Rice Observational Nursery - Module 2 2008\/set 8","crop":"Rice","country":"India","sow_date":"10\/3\/2008","longitude":"78.392778","latitude":"17.321111","url":"http:\/\/www.agtrials.org\/tbtrial\/1719"},{"name":"International Irrigated Rice Observational Nursery - Module 2 2008\/set 9","crop":"Rice","country":"India","sow_date":"6\/30\/2008","longitude":"81.295833","latitude":"24.54","url":"http:\/\/www.agtrials.org\/tbtrial\/1720"},{"name":"International Irrigated Rice Observational Nursery - Module 2 2008\/set 10","crop":"Rice","country":"India","sow_date":"7\/10\/2008","longitude":"79.483611","latitude":"11.016944","url":"http:\/\/www.agtrials.org\/tbtrial\/1721"},{"name":"International Irrigated Rice Observational Nursery - Module 2 2008\/set 19","crop":"Rice","country":"Pakistan","sow_date":"5\/14\/2008","longitude":"72.366667","latitude":"34.783333","url":"http:\/\/www.agtrials.org\/tbtrial\/1722"},{"name":"International Irrigated Rice Observational Nursery - Module 2 2008\/set 22","crop":"Rice","country":"Pakistan","sow_date":"5\/12\/2008","longitude":"73.24166667","latitude":"34.13777778","url":"http:\/\/www.agtrials.org\/tbtrial\/1723"},{"name":"International Irrigated Rice Observational Nursery - Module 2 2008\/set 26","crop":"Rice","country":"Nepal","sow_date":"6\/19\/2008","longitude":"85.92","latitude":"26.73","url":"http:\/\/www.agtrials.org\/tbtrial\/1724"},{"name":"International Irrigated Rice Observational Nursery - Module 2 2008\/set 49","crop":"Rice","country":"India","sow_date":"6\/26\/2008","longitude":"79.643889","latitude":"29.589167","url":"http:\/\/www.agtrials.org\/tbtrial\/1725"},{"name":"International Rice Blast Nursery 2008\/set 2","crop":"Rice","country":"India","sow_date":"5\/8\/2008","longitude":"75.094167","latitude":"33.720833","url":"http:\/\/www.agtrials.org\/tbtrial\/1726"},{"name":"International Rice Blast Nursery 2008\/set 3","crop":"Rice","country":"India","sow_date":"6\/9\/2008","longitude":"72.903889","latitude":"20.926667","url":"http:\/\/www.agtrials.org\/tbtrial\/1727"},{"name":"International Rice Blast Nursery 2008\/set 4","crop":"Rice","country":"India","sow_date":"7\/11\/2008","longitude":"76.666667","latitude":"29.85","url":"http:\/\/www.agtrials.org\/tbtrial\/1728"},{"name":"International Rice Blast Nursery 2008\/set 5","crop":"Rice","country":"India","sow_date":"7\/8\/2008","longitude":"91.927","latitude":"25.679","url":"http:\/\/www.agtrials.org\/tbtrial\/1729"},{"name":"International Rice Blast Nursery 2008\/set 7","crop":"Rice","country":"India","sow_date":"8\/2\/2008","longitude":"78.392778","latitude":"17.321111","url":"http:\/\/www.agtrials.org\/tbtrial\/1730"},{"name":"International Rice Blast Nursery 2008\/set 8","crop":"Rice","country":"India","sow_date":"7\/8\/2008","longitude":"91.927","latitude":"25.679","url":"http:\/\/www.agtrials.org\/tbtrial\/1731"},{"name":"International Rice Blast Nursery 2008\/set 26","crop":"Rice","country":"Sri Lanka","sow_date":"4\/21\/2008","longitude":"81.014653","latitude":"6.123274","url":"http:\/\/www.agtrials.org\/tbtrial\/1732"},{"name":"International Rice Blast Nursery 2008\/set 35","crop":"Rice","country":"Bangladesh","sow_date":"11\/4\/2008","longitude":"90.407778","latitude":"23.990833","url":"http:\/\/www.agtrials.org\/tbtrial\/1733"},{"name":"International Boro Rice Observational Nursery 2008\/set 3","crop":"Rice","country":"India","sow_date":"12\/12\/2007","longitude":"91.559444","latitude":"26.252778","url":"http:\/\/www.agtrials.org\/tbtrial\/1734"},{"name":"International Boro Rice Observational Nursery 2008\/set 19","crop":"Rice","country":"Bangladesh","sow_date":"12\/15\/2008","longitude":"90.407778","latitude":"23.990833","url":"http:\/\/www.agtrials.org\/tbtrial\/1735"},{"name":"International Rice Heat Tolerance Nursery 2008\/set 3","crop":"Rice","country":"India","sow_date":"5\/28\/2008","longitude":"79.483611","latitude":"11.016944","url":"http:\/\/www.agtrials.org\/tbtrial\/1736"},{"name":"International Rice Heat Tolerance Nursery 2008\/set 19","crop":"Rice","country":"Bangladesh","sow_date":"3\/24\/2008","longitude":"90.407778","latitude":"23.990833","url":"http:\/\/www.agtrials.org\/tbtrial\/1738"},{"name":"International Rainfed Lowland Rice Observational Nursery - Module 1 2008\/set 1","crop":"Rice","country":"India","sow_date":"6\/27\/2008","longitude":"81.6","latitude":"27.583333","url":"http:\/\/www.agtrials.org\/tbtrial\/1739"},{"name":"International Rainfed Lowland Rice Observational Nursery - Module 1 2008\/set 2","crop":"Rice","country":"India","sow_date":"7\/11\/2008","longitude":"74.916667","latitude":"15.45","url":"http:\/\/www.agtrials.org\/tbtrial\/1740"},{"name":"International Rainfed Lowland Rice Observational Nursery - Module 1 2008\/set 3","crop":"Rice","country":"India","sow_date":"5\/19\/2008","longitude":"92.715833","latitude":"11.613889","url":"http:\/\/www.agtrials.org\/tbtrial\/1741"},{"name":"International Rainfed Lowland Rice Observational Nursery - Module 1 2008\/set 13","crop":"Rice","country":"Nepal","sow_date":"6\/21\/2008","longitude":"85.92","latitude":"26.73","url":"http:\/\/www.agtrials.org\/tbtrial\/1742"},{"name":"International Rainfed Lowland Rice Observational Nursery - Module 1 2008\/set 22","crop":"Rice","country":"Sri Lanka","sow_date":"5\/14\/2008","longitude":"81.014653","latitude":"6.123274","url":"http:\/\/www.agtrials.org\/tbtrial\/1743"},{"name":"International Rainfed Lowland Rice Observational Nursery - Module 1 2008\/set 27","crop":"Rice","country":"Bangladesh","sow_date":"7\/20\/2008","longitude":"90.407778","latitude":"23.990833","url":"http:\/\/www.agtrials.org\/tbtrial\/1744"},{"name":"International Rainfed Lowland Rice Observational Nursery - Module 2 2008\/set 1","crop":"Rice","country":"India","sow_date":"6\/24\/2008","longitude":"81.6","latitude":"27.583333","url":"http:\/\/www.agtrials.org\/tbtrial\/1745"},{"name":"International Rainfed Lowland Rice Observational Nursery - Module 2 2008\/set 2","crop":"Rice","country":"India","sow_date":"7\/11\/2008","longitude":"74.916667","latitude":"15.45","url":"http:\/\/www.agtrials.org\/tbtrial\/1746"},{"name":"International Rainfed Lowland Rice Observational Nursery - Module 2 2008\/set 13","crop":"Rice","country":"Nepal","sow_date":"6\/21\/2008","longitude":"85.92","latitude":"26.73","url":"http:\/\/www.agtrials.org\/tbtrial\/1747"},{"name":"International Rainfed Lowland Rice Observational Nursery - Module 2 2008\/set 28","crop":"Rice","country":"Bangladesh","sow_date":"7\/30\/2008","longitude":"89.25","latitude":"25.75","url":"http:\/\/www.agtrials.org\/tbtrial\/1748"},{"name":"International Rice Soil Stress Tolerance Nursery - Module 1a 2008\/set 1","crop":"Rice","country":"India","sow_date":"6\/6\/2008","longitude":"72.903889","latitude":"20.926667","url":"http:\/\/www.agtrials.org\/tbtrial\/1749"},{"name":"International Rice Soil Stress Tolerance Nursery - Module 1a 2008\/set 2","crop":"Rice","country":"India","sow_date":"6\/5\/2008","longitude":"85.939722","latitude":"20.450833","url":"http:\/\/www.agtrials.org\/tbtrial\/1750"},{"name":"International Rice Soil Stress Tolerance Nursery - Module 1a 2008\/set 7","crop":"Rice","country":"India","sow_date":"6\/27\/2008","longitude":"88.666944","latitude":"22.303333","url":"http:\/\/www.agtrials.org\/tbtrial\/1751"},{"name":"International Rice Soil Stress Tolerance Nursery - Module 1a 2008\/set 23","crop":"Rice","country":"India","sow_date":"6\/24\/2008","longitude":"73.100833","latitude":"18.991667","url":"http:\/\/www.agtrials.org\/tbtrial\/1754"},{"name":"International Rice Soil Stress Tolerance Nursery - Module 1a 2008\/set 24","crop":"Rice","country":"India","sow_date":"6\/30\/2008","longitude":"76.4275","latitude":"9.435833","url":"http:\/\/www.agtrials.org\/tbtrial\/1755"},{"name":"International Rice Soil Stress Tolerance Nursery - Module 2a 2008\/set 1","crop":"Rice","country":"India","sow_date":"6\/6\/2008","longitude":"80.923611","latitude":"26.803056","url":"http:\/\/www.agtrials.org\/tbtrial\/1756"},{"name":"International Rice Soil Stress Tolerance Nursery - Module 2a 2008\/set 2","crop":"Rice","country":"India","sow_date":"5\/28\/2008","longitude":"76.953056","latitude":"29.708056","url":"http:\/\/www.agtrials.org\/tbtrial\/1757"},{"name":"International Rice Soil Stress Tolerance Nursery - Module 2a 2008\/set 3","crop":"Rice","country":"India","sow_date":"6\/10\/2008","longitude":"81.835","latitude":"26.540556","url":"http:\/\/www.agtrials.org\/tbtrial\/1758"},{"name":"International Rice Soil Stress Tolerance Nursery - Module 2a 2008\/set 4","crop":"Rice","country":"India","sow_date":"6\/5\/2008","longitude":"85.939722","latitude":"20.450833","url":"http:\/\/www.agtrials.org\/tbtrial\/1759"},{"name":"International Rice Soil Stress Tolerance Nursery - Module 2a 2008\/set 6","crop":"Rice","country":"India","sow_date":"6\/12\/2008","longitude":"81.835","latitude":"26.540556","url":"http:\/\/www.agtrials.org\/tbtrial\/1760"},{"name":"International Rice Soil Stress Tolerance Nursery - Module 2a 2008\/set 7","crop":"Rice","country":"India","sow_date":"6\/20\/2008","longitude":"79.829722","latitude":"10.929722","url":"http:\/\/www.agtrials.org\/tbtrial\/1761"},{"name":"International Rice Soil Stress Tolerance Nursery - Module 2a 2008\/set 18","crop":"Rice","country":"India","sow_date":"6\/27\/2008","longitude":"88.666944","latitude":"22.303333","url":"http:\/\/www.agtrials.org\/tbtrial\/1763"},{"name":"International Rice Soil Stress Tolerance Nursery - Module 2a 2008\/set 21","crop":"Rice","country":"India","sow_date":"5\/20\/2008","longitude":"79.714722","latitude":"11.389167","url":"http:\/\/www.agtrials.org\/tbtrial\/1764"},{"name":"International Rice Soil Stress Tolerance Nursery - Module 2a 2008\/set 28","crop":"Rice","country":"India","sow_date":"7\/11\/2008","longitude":"73.100833","latitude":"18.991667","url":"http:\/\/www.agtrials.org\/tbtrial\/1765"},{"name":"International Rice Soil Stress Tolerance Nursery - Module 2b 2008\/set 1","crop":"Rice","country":"India","sow_date":"12\/29\/2008","longitude":"72.903889","latitude":"20.926667","url":"http:\/\/www.agtrials.org\/tbtrial\/1766"},{"name":"International Temperate Rice Observational Nursery 2008\/set 1","crop":"Rice","country":"India","sow_date":"5\/8\/2008","longitude":"75.094167","latitude":"33.720833","url":"http:\/\/www.agtrials.org\/tbtrial\/1767"},{"name":"International Temperate Rice Observational Nursery 2008\/set 13","crop":"Rice","country":"Nepal","sow_date":"7\/6\/2008","longitude":"85.333333","latitude":"27.666667","url":"http:\/\/www.agtrials.org\/tbtrial\/1768"},{"name":"International Upland Rice Observational Nursery 2008\/set 1","crop":"Rice","country":"India","sow_date":"7\/1\/2008","longitude":"73.46","latitude":"22.627","url":"http:\/\/www.agtrials.org\/tbtrial\/1770"},{"name":"International Upland Rice Observational Nursery 2008\/set 2","crop":"Rice","country":"India","sow_date":"6\/6\/2008","longitude":"74.916667","latitude":"15.45","url":"http:\/\/www.agtrials.org\/tbtrial\/1771"},{"name":"International Upland Rice Observational Nursery 2008\/set 3","crop":"Rice","country":"India","sow_date":"5\/16\/2008","longitude":"91.913056","latitude":"25.684167","url":"http:\/\/www.agtrials.org\/tbtrial\/1772"},{"name":"International Upland Rice Observational Nursery 2008\/set 5","crop":"Rice","country":"India","sow_date":"7\/12\/2008","longitude":"81.295833","latitude":"24.54","url":"http:\/\/www.agtrials.org\/tbtrial\/1773"},{"name":"International Upland Rice Observational Nursery 2008\/set 8","crop":"Rice","country":"India","sow_date":"5\/6\/2009","longitude":"79.643889","latitude":"29.589167","url":"http:\/\/www.agtrials.org\/tbtrial\/1775"},{"name":"International Upland Rice Observational Nursery 2008\/set 17","crop":"Rice","country":"Nepal","sow_date":"6\/9\/2008","longitude":"85.92","latitude":"26.73","url":"http:\/\/www.agtrials.org\/tbtrial\/1776"},{"name":"International Irrigated Rice Observational Nursery - Module 1 2007\/set 1","crop":"Rice","country":"India","sow_date":"6\/1\/2007","longitude":"74.816667","latitude":"34.083333","url":"http:\/\/www.agtrials.org\/tbtrial\/1777"},{"name":"International Irrigated Rice Observational Nursery - Module 1 2007\/set 2","crop":"Rice","country":"India","sow_date":"7\/4\/2007","longitude":"81.295833","latitude":"24.54","url":"http:\/\/www.agtrials.org\/tbtrial\/1778"},{"name":"International Irrigated Rice Observational Nursery - Module 1 2007\/set 3","crop":"Rice","country":"India","sow_date":"6\/22\/2007","longitude":"82.2375","latitude":"27.30861111","url":"http:\/\/www.agtrials.org\/tbtrial\/1779"},{"name":"International Irrigated Rice Observational Nursery - Module 1 2007\/set 4","crop":"Rice","country":"India","sow_date":"6\/25\/2007","longitude":"85.939722","latitude":"20.450833","url":"http:\/\/www.agtrials.org\/tbtrial\/1780"},{"name":"International Irrigated Rice Observational Nursery - Module 1 2007\/set 5","crop":"Rice","country":"India","sow_date":"7\/4\/2007","longitude":"76.99442","latitude":"11.1176","url":"http:\/\/www.agtrials.org\/tbtrial\/1781"},{"name":"International Irrigated Rice Observational Nursery - Module 1 2007\/set 6","crop":"Rice","country":"India","sow_date":"5\/21\/2007","longitude":"75.803889","latitude":"30.903056","url":"http:\/\/www.agtrials.org\/tbtrial\/1782"},{"name":"International Irrigated Rice Observational Nursery - Module 1 2007\/set 7","crop":"Rice","country":"India","sow_date":"12\/17\/2007","longitude":"79.483611","latitude":"11.016944","url":"http:\/\/www.agtrials.org\/tbtrial\/1783"},{"name":"International Irrigated Rice Observational Nursery - Module 1 2007\/set 9","crop":"Rice","country":"India","sow_date":"6\/4\/2007","longitude":"79.516667","latitude":"29.05","url":"http:\/\/www.agtrials.org\/tbtrial\/1784"},{"name":"International Irrigated Rice Observational Nursery - Module 1 2007\/set 13","crop":"Rice","country":"India","sow_date":"6\/15\/2007","longitude":"79.643889","latitude":"29.589167","url":"http:\/\/www.agtrials.org\/tbtrial\/1785"},{"name":"International Irrigated Rice Observational Nursery - Module 1 2007\/set 14","crop":"Rice","country":"India","sow_date":"5\/31\/2007","longitude":"76.666667","latitude":"29.85","url":"http:\/\/www.agtrials.org\/tbtrial\/1786"},{"name":"International Irrigated Rice Observational Nursery - Module 1 2007\/set 17","crop":"Rice","country":"Pakistan","sow_date":"5\/11\/2007","longitude":"72.366667","latitude":"34.783333","url":"http:\/\/www.agtrials.org\/tbtrial\/1787"},{"name":"International Irrigated Rice Observational Nursery - Module 1 2007\/set 36","crop":"Rice","country":"Nepal","sow_date":"7\/3\/2007","longitude":"85.92","latitude":"26.73","url":"http:\/\/www.agtrials.org\/tbtrial\/1788"},{"name":"International Irrigated Rice Observational Nursery - Module 1 2007\/set 43","crop":"Rice","country":"Sri Lanka","sow_date":"5\/1\/2007","longitude":"80.4367","latitude":"7.5333","url":"http:\/\/www.agtrials.org\/tbtrial\/1789"},{"name":"International Irrigated Rice Observational Nursery - Module 1 2007\/set 58","crop":"Rice","country":"Bangladesh","sow_date":"4\/19\/2007","longitude":"90.407778","latitude":"23.990833","url":"http:\/\/www.agtrials.org\/tbtrial\/1790"},{"name":"International Irrigated Rice Observational Nursery - Module 1 2007\/set 60","crop":"Rice","country":"India","sow_date":"6\/27\/2007","longitude":"77.25388889","latitude":"29.05722222","url":"http:\/\/www.agtrials.org\/tbtrial\/1791"},{"name":"International Irrigated Rice Observational Nursery - Module 2 2007\/set 1","crop":"Rice","country":"India","sow_date":"6\/1\/2007","longitude":"74.816667","latitude":"34.083333","url":"http:\/\/www.agtrials.org\/tbtrial\/1792"},{"name":"International Irrigated Rice Observational Nursery - Module 2 2007\/set 2","crop":"Rice","country":"India","sow_date":"7\/4\/2007","longitude":"81.295833","latitude":"24.54","url":"http:\/\/www.agtrials.org\/tbtrial\/1793"},{"name":"International Irrigated Rice Observational Nursery - Module 2 2007\/set 3","crop":"Rice","country":"India","sow_date":"6\/12\/2007","longitude":"82.2375","latitude":"27.30861111","url":"http:\/\/www.agtrials.org\/tbtrial\/1794"},{"name":"International Irrigated Rice Observational Nursery - Module 2 2007\/set 5","crop":"Rice","country":"India","sow_date":"7\/4\/2007","longitude":"76.99442","latitude":"11.1176","url":"http:\/\/www.agtrials.org\/tbtrial\/1795"},{"name":"International Irrigated Rice Observational Nursery - Module 2 2007\/set 6","crop":"Rice","country":"India","sow_date":"5\/21\/2007","longitude":"75.803889","latitude":"30.903056","url":"http:\/\/www.agtrials.org\/tbtrial\/1796"},{"name":"International Irrigated Rice Observational Nursery - Module 2 2007\/set 7","crop":"Rice","country":"India","sow_date":"9\/12\/2007","longitude":"79.483611","latitude":"11.016944","url":"http:\/\/www.agtrials.org\/tbtrial\/1797"},{"name":"International Irrigated Rice Observational Nursery - Module 2 2007\/set 9","crop":"Rice","country":"India","sow_date":"6\/4\/2007","longitude":"79.516667","latitude":"29.05","url":"http:\/\/www.agtrials.org\/tbtrial\/1798"},{"name":"International Irrigated Rice Observational Nursery - Module 1 2009\/set 39","crop":"Rice","country":"Sri Lanka","sow_date":"4\/20\/2009","longitude":"81.014653","latitude":"6.123274","url":"http:\/\/www.agtrials.org\/tbtrial\/882"},{"name":"International Irrigated Rice Observational Nursery - Module 1 2009\/set 3","crop":"Rice","country":"India","sow_date":"6\/10\/2009","longitude":"74.806111","latitude":"32.655278","url":"http:\/\/www.agtrials.org\/tbtrial\/884"},{"name":"International Irrigated Rice Observational Nursery - Module 2 2009\/set 3","crop":"Rice","country":"India","sow_date":"6\/10\/2009","longitude":"74.806111","latitude":"32.655278","url":"http:\/\/www.agtrials.org\/tbtrial\/885"},{"name":"International Rice Soil Stress Tolerance Nursery - Module 1 2009\/set 3","crop":"Rice","country":"India","sow_date":"7\/8\/2009","longitude":"88.369167","latitude":"22.896389","url":"http:\/\/www.agtrials.org\/tbtrial\/886"},{"name":"International Rice Soil Stress Tolerance Nursery - Module 2 2009\/set 10","crop":"Rice","country":"India","sow_date":"7\/8\/2009","longitude":"88.369167","latitude":"22.896389","url":"http:\/\/www.agtrials.org\/tbtrial\/887"},{"name":"International Irrigated Rice Observational Nursery - Module 1 2009\/set 16","crop":"Rice","country":"India","sow_date":"6\/12\/2009","longitude":"76.99442","latitude":"11.1176","url":"http:\/\/www.agtrials.org\/tbtrial\/888"},{"name":"International Irrigated Rice Observational Nursery - Module 2 2009\/set 16","crop":"Rice","country":"India","sow_date":"8\/6\/2009","longitude":"76.99442","latitude":"11.1176","url":"http:\/\/www.agtrials.org\/tbtrial\/889"},{"name":"International Irrigated Rice Observational Nursery - Module 1 2009\/set 23","crop":"Rice","country":"Pakistan","sow_date":"6\/17\/2009","longitude":"68.09673","latitude":"27.37427","url":"http:\/\/www.agtrials.org\/tbtrial\/890"},{"name":"International Rice Heat Tolerance Nursery 2009\/set 9","crop":"Rice","country":"Pakistan","sow_date":"6\/17\/2009","longitude":"68.09673","latitude":"27.37427","url":"http:\/\/www.agtrials.org\/tbtrial\/891"},{"name":"International Rice Heat Tolerance Nursery 2009\/set 21","crop":"Rice","country":"Bangladesh","sow_date":"4\/20\/2009","longitude":"90.407778","latitude":"23.990833","url":"http:\/\/www.agtrials.org\/tbtrial\/893"},{"name":"International Rainfed Lowland Rice Observational Nursery - Module 1 2009\/set 31","crop":"Rice","country":"Bangladesh","sow_date":"7\/17\/2009","longitude":"90.407778","latitude":"23.990833","url":"http:\/\/www.agtrials.org\/tbtrial\/894"},{"name":"International Rainfed Lowland Rice Observational Nursery - Module 2 2009\/set 27","crop":"Rice","country":"Bangladesh","sow_date":"6\/25\/2009","longitude":"90.407778","latitude":"23.990833","url":"http:\/\/www.agtrials.org\/tbtrial\/895"},{"name":"International Upland Rice Observational Nursery 2009\/set 31","crop":"Rice","country":"Bangladesh","sow_date":"5\/5\/2009","longitude":"90.407778","latitude":"23.990833","url":"http:\/\/www.agtrials.org\/tbtrial\/896"},{"name":"International Rainfed Lowland Rice Observational Nursery - Module 1 2009\/set 5","crop":"Rice","country":"India","sow_date":"7\/5\/2009","longitude":"81.6","latitude":"27.583333","url":"http:\/\/www.agtrials.org\/tbtrial\/897"},{"name":"International Rainfed Lowland Rice Observational Nursery - Module 2 2009\/set 5","crop":"Rice","country":"India","sow_date":"7\/6\/2009","longitude":"81.6","latitude":"27.583333","url":"http:\/\/www.agtrials.org\/tbtrial\/898"},{"name":"International Rice Soil Stress Tolerance Nursery - Module 2 2009\/set 13","crop":"Rice","country":"Pakistan","sow_date":"6\/6\/2009","longitude":"73.466667","latitude":"31.4","url":"http:\/\/www.agtrials.org\/tbtrial\/899"},{"name":"International Upland Rice Observational Nursery 2009\/set 2","crop":"Rice","country":"India","sow_date":"6\/25\/2009","longitude":"93.95","latitude":"24.816667","url":"http:\/\/www.agtrials.org\/tbtrial\/901"},{"name":"International Irrigated Rice Observational Nursery - Module 1 2009\/set 2","crop":"Rice","country":"India","sow_date":"6\/15\/2009","longitude":"79.958056","latitude":"23.214444","url":"http:\/\/www.agtrials.org\/tbtrial\/902"},{"name":"International Irrigated Rice Observational Nursery - Module 2 2009\/set 2","crop":"Rice","country":"India","sow_date":"6\/15\/2009","longitude":"79.958056","latitude":"23.214444","url":"http:\/\/www.agtrials.org\/tbtrial\/903"},{"name":"International Rice Heat Tolerance Nursery 2009\/set 10","crop":"Rice","country":"Pakistan","sow_date":"5\/29\/2009","longitude":"68.451389","latitude":"28.276944","url":"http:\/\/www.agtrials.org\/tbtrial\/904"},{"name":"International Irrigated Rice Observational Nursery - Module 1 2009\/set 22","crop":"Rice","country":"Pakistan","sow_date":"6\/16\/2009","longitude":"74.263611","latitude":"31.688056","url":"http:\/\/www.agtrials.org\/tbtrial\/905"},{"name":"International Irrigated Rice Observational Nursery - Module 1 2009\/set 8","crop":"Rice","country":"India","sow_date":"6\/26\/2009","longitude":"80.3070166","latitude":"26.4911572","url":"http:\/\/www.agtrials.org\/tbtrial\/906"},{"name":"International Irrigated Rice Observational Nursery - Module 2 2009\/set 8","crop":"Rice","country":"India","sow_date":"6\/16\/2009","longitude":"80.3070166","latitude":"26.4911572","url":"http:\/\/www.agtrials.org\/tbtrial\/907"},{"name":"International Rice Heat Tolerance Nursery 2009\/set 3","crop":"Rice","country":"India","sow_date":"6\/19\/2009","longitude":"80.3070166","latitude":"26.4911572","url":"http:\/\/www.agtrials.org\/tbtrial\/908"},{"name":"International Rice Soil Stress Tolerance Nursery - Module 1 2009\/set 5","crop":"Rice","country":"India","sow_date":"6\/19\/2009","longitude":"80.3070166","latitude":"26.4911572","url":"http:\/\/www.agtrials.org\/tbtrial\/909"},{"name":"International Rice Soil Stress Tolerance Nursery - Module 2 2009\/set 5","crop":"Rice","country":"India","sow_date":"6\/19\/2009","longitude":"80.3070166","latitude":"26.4911572","url":"http:\/\/www.agtrials.org\/tbtrial\/910"},{"name":"International Rice Soil Stress Tolerance Nursery - Module 2 2009\/set 29","crop":"Rice","country":"India","sow_date":"6\/19\/2009","longitude":"79.829722","latitude":"10.929722","url":"http:\/\/www.agtrials.org\/tbtrial\/911"},{"name":"International Irrigated Rice Observational Nursery - Module 1 2009\/set 19","crop":"Rice","country":"India","sow_date":"6\/29\/2009","longitude":"73.316389","latitude":"18.915556","url":"http:\/\/www.agtrials.org\/tbtrial\/912"},{"name":"International Irrigated Rice Observational Nursery - Module 2 2009\/set 19","crop":"Rice","country":"India","sow_date":"6\/29\/2009","longitude":"73.316389","latitude":"18.915556","url":"http:\/\/www.agtrials.org\/tbtrial\/913"},{"name":"International Rice Soil Stress Tolerance Nursery - Module 2 2009\/set 2","crop":"Rice","country":"India","sow_date":"6\/2\/2009","longitude":"76.953056","latitude":"29.708056","url":"http:\/\/www.agtrials.org\/tbtrial\/914"},{"name":"International Irrigated Rice Observational Nursery - Module 1 2009\/set 5","crop":"Rice","country":"India","sow_date":"6\/4\/2009","longitude":"76.666667","latitude":"29.85","url":"http:\/\/www.agtrials.org\/tbtrial\/915"},{"name":"International Irrigated Rice Observational Nursery - Module 2 2009\/set 5","crop":"Rice","country":"India","sow_date":"6\/4\/2009","longitude":"76.666667","latitude":"29.85","url":"http:\/\/www.agtrials.org\/tbtrial\/916"},{"name":"International Temperate Rice Observational Nursery 2009\/set 18","crop":"Rice","country":"Nepal","sow_date":"7\/9\/2009","longitude":"85.333333","latitude":"27.666667","url":"http:\/\/www.agtrials.org\/tbtrial\/917"},{"name":"International Rice Soil Stress Tolerance Nursery - Module 2 2009\/set 12","crop":"Rice","country":"India","sow_date":"6\/23\/2009","longitude":"81.835","latitude":"26.540556","url":"http:\/\/www.agtrials.org\/tbtrial\/918"},{"name":"International Rice Bacterial Blight Nursery 2009\/set 15","crop":"Rice","country":"Sri Lanka","sow_date":"5\/10\/2009","longitude":"80.233333","latitude":"6.066667","url":"http:\/\/www.agtrials.org\/tbtrial\/919"},{"name":"International Rice Soil Stress Tolerance Nursery - Module 2 2009\/set 14","crop":"Rice","country":"Pakistan","sow_date":"5\/31\/2009","longitude":"74.343611","latitude":"31.549722","url":"http:\/\/www.agtrials.org\/tbtrial\/920"},{"name":"International Irrigated Rice Observational Nursery - Module 1 2009\/set 6","crop":"Rice","country":"India","sow_date":"6\/1\/2009","longitude":"75.803889","latitude":"30.903056","url":"http:\/\/www.agtrials.org\/tbtrial\/921"},{"name":"International Irrigated Rice Observational Nursery - Module 2 2009\/set 6","crop":"Rice","country":"India","sow_date":"6\/1\/2009","longitude":"75.803889","latitude":"30.903056","url":"http:\/\/www.agtrials.org\/tbtrial\/922"},{"name":"International Rice Heat Tolerance Nursery 2009\/set 2","crop":"Rice","country":"India","sow_date":"6\/1\/2009","longitude":"75.803889","latitude":"30.903056","url":"http:\/\/www.agtrials.org\/tbtrial\/923"},{"name":"International Upland Rice Observational Nursery 2009\/set 5","crop":"Rice","country":"India","sow_date":"8\/16\/2009","longitude":"74.916667","latitude":"15.45","url":"http:\/\/www.agtrials.org\/tbtrial\/924"},{"name":"International Irrigated Rice Observational Nursery - Module 1 2009\/set 58","crop":"Rice","country":"Bangladesh","sow_date":"7\/6\/2009","longitude":"90.4","latitude":"24.75","url":"http:\/\/www.agtrials.org\/tbtrial\/925"},{"name":"International Rice Soil Stress Tolerance Nursery - Module 1 2009\/set 39","crop":"Rice","country":"Bangladesh","sow_date":"7\/13\/2009","longitude":"90.4","latitude":"24.75","url":"http:\/\/www.agtrials.org\/tbtrial\/926"},{"name":"International Rice Soil Stress Tolerance Nursery - Module 2 2009\/set 37","crop":"Rice","country":"Bangladesh","sow_date":"7\/13\/2009","longitude":"90.4","latitude":"24.75","url":"http:\/\/www.agtrials.org\/tbtrial\/927"},{"name":"International Upland Rice Observational Nursery 2009\/set 9","crop":"Rice","country":"India","sow_date":"7\/7\/2009","longitude":"72.903889","latitude":"20.926667","url":"http:\/\/www.agtrials.org\/tbtrial\/928"},{"name":"International Irrigated Rice Observational Nursery - Module 1 2009\/set 17","crop":"Rice","country":"India","sow_date":"6\/20\/2009","longitude":"72.583333","latitude":"22.8","url":"http:\/\/www.agtrials.org\/tbtrial\/929"},{"name":"International Irrigated Rice Observational Nursery - Module 2 2009\/set 17","crop":"Rice","country":"India","sow_date":"6\/20\/2009","longitude":"72.583333","latitude":"22.8","url":"http:\/\/www.agtrials.org\/tbtrial\/930"},{"name":"International Upland Rice Observational Nursery 2009\/set 11","crop":"Rice","country":"India","sow_date":"7\/29\/2009","longitude":"72.583333","latitude":"22.8","url":"http:\/\/www.agtrials.org\/tbtrial\/931"},{"name":"International Irrigated Rice Observational Nursery - Module 1 2009\/set 15","crop":"Rice","country":"India","sow_date":"6\/8\/2009","longitude":"79.516667","latitude":"29.05","url":"http:\/\/www.agtrials.org\/tbtrial\/932"},{"name":"International Irrigated Rice Observational Nursery - Module 2 2009\/set 15","crop":"Rice","country":"India","sow_date":"6\/8\/2009","longitude":"79.516667","latitude":"29.05","url":"http:\/\/www.agtrials.org\/tbtrial\/933"},{"name":"International Irrigated Rice Observational Nursery - Module 1 2009\/set 4","crop":"Rice","country":"India","sow_date":"6\/27\/2009","longitude":"78.392778","latitude":"17.321111","url":"http:\/\/www.agtrials.org\/tbtrial\/934"},{"name":"International Irrigated Rice Observational Nursery - Module 2 2009\/set 4","crop":"Rice","country":"India","sow_date":"7\/8\/2009","longitude":"78.392778","latitude":"17.321111","url":"http:\/\/www.agtrials.org\/tbtrial\/935"},{"name":"International Upland Rice Observational Nursery 2009\/set 8","crop":"Rice","country":"India","sow_date":"6\/16\/2009","longitude":"81.295833","latitude":"24.54","url":"http:\/\/www.agtrials.org\/tbtrial\/936"},{"name":"International Rice Soil Stress Tolerance Nursery - Module 1 2009\/set 37","crop":"Rice","country":"Bangladesh","sow_date":"6\/25\/2009","longitude":"89.1","latitude":"22.716667","url":"http:\/\/www.agtrials.org\/tbtrial\/937"},{"name":"International Rainfed Lowland Rice Observational Nursery - Module 1 2009\/set 4","crop":"Rice","country":"India","sow_date":"6\/15\/2009","longitude":"74.85","latitude":"14.616667","url":"http:\/\/www.agtrials.org\/tbtrial\/938"},{"name":"International Rainfed Lowland Rice Observational Nursery - Module 2 2009\/set 4","crop":"Rice","country":"India","sow_date":"6\/15\/2009","longitude":"74.85","latitude":"14.616667","url":"http:\/\/www.agtrials.org\/tbtrial\/939"},{"name":"International Irrigated Rice Observational Nursery - Module 1 2009\/set 14","crop":"Rice","country":"India","sow_date":"7\/4\/2009","longitude":"80.033333","latitude":"21.75","url":"http:\/\/www.agtrials.org\/tbtrial\/940"},{"name":"International Irrigated Rice Observational Nursery - Module 2 2009\/set 14","crop":"Rice","country":"India","sow_date":"7\/4\/2009","longitude":"80.033333","latitude":"21.75","url":"http:\/\/www.agtrials.org\/tbtrial\/941"},{"name":"International Irrigated Rice Observational Nursery - Module 1 2008\/set 1","crop":"Rice","country":"India","sow_date":"5\/24\/2008","longitude":"75.803889","latitude":"30.903056","url":"http:\/\/www.agtrials.org\/tbtrial\/1697"},{"name":"International Irrigated Rice Observational Nursery - Module 1 2008\/set 3","crop":"Rice","country":"India","sow_date":"6\/12\/2008","longitude":"76.666667","latitude":"29.85","url":"http:\/\/www.agtrials.org\/tbtrial\/1698"},{"name":"International Irrigated Rice Observational Nursery - Module 1 2008\/set 4","crop":"Rice","country":"India","sow_date":"6\/18\/2008","longitude":"72.583333","latitude":"22.8","url":"http:\/\/www.agtrials.org\/tbtrial\/1699"},{"name":"International Irrigated Rice Observational Nursery - Module 1 2008\/set 6","crop":"Rice","country":"India","sow_date":"6\/11\/2008","longitude":"79.516667","latitude":"29.05","url":"http:\/\/www.agtrials.org\/tbtrial\/1700"},{"name":"International Irrigated Rice Observational Nursery - Module 1 2008\/set 7","crop":"Rice","country":"India","sow_date":"5\/8\/2008","longitude":"75.094167","latitude":"33.720833","url":"http:\/\/www.agtrials.org\/tbtrial\/1701"},{"name":"International Irrigated Rice Observational Nursery - Module 1 2008\/set 8","crop":"Rice","country":"India","sow_date":"7\/10\/2008","longitude":"78.392778","latitude":"17.321111","url":"http:\/\/www.agtrials.org\/tbtrial\/1702"},{"name":"International Irrigated Rice Observational Nursery - Module 1 2008\/set 9","crop":"Rice","country":"India","sow_date":"6\/30\/2008","longitude":"81.295833","latitude":"24.54","url":"http:\/\/www.agtrials.org\/tbtrial\/1703"},{"name":"International Irrigated Rice Observational Nursery - Module 1 2008\/set 10","crop":"Rice","country":"India","sow_date":"5\/28\/2008","longitude":"79.483611","latitude":"11.016944","url":"http:\/\/www.agtrials.org\/tbtrial\/1704"},{"name":"International Irrigated Rice Observational Nursery - Module 1 2008\/set 27","crop":"Rice","country":"Pakistan","sow_date":"5\/14\/2008","longitude":"72.366667","latitude":"34.783333","url":"http:\/\/www.agtrials.org\/tbtrial\/1705"},{"name":"International Rice Soil Stress Tolerance  Nursery 2005\/set 7","crop":"Rice","country":"India","sow_date":"","longitude":"85.939722","latitude":"20.450833","url":"http:\/\/www.agtrials.org\/tbtrial\/2987"},{"name":"International Temperate Rice Observational Nursery 2005\/set 1","crop":"Rice","country":"India","sow_date":"","longitude":"91.913056","latitude":"25.684167","url":"http:\/\/www.agtrials.org\/tbtrial\/2990"},{"name":"International Rice Brown Planthopper Nursery 2005\/set 3","crop":"Rice","country":"India","sow_date":"","longitude":"78.392778","latitude":"17.321111","url":"http:\/\/www.agtrials.org\/tbtrial\/2980"},{"name":"International Irrigated Rice Observational Nursery - Module 1 2006\/set 11","crop":"Rice","country":"India","sow_date":"","longitude":"76.99442","latitude":"11.1176","url":"http:\/\/www.agtrials.org\/tbtrial\/1853"},{"name":"International Irrigated Rice Observational Nursery - Module 1 2006\/set 12","crop":"Rice","country":"India","sow_date":"","longitude":"75.803889","latitude":"30.903056","url":"http:\/\/www.agtrials.org\/tbtrial\/1854"},{"name":"International Rice Brown Planthopper Nursery 2007\/set 19","crop":"Rice","country":"Sri Lanka","sow_date":"","longitude":"80.4367","latitude":"7.5333","url":"http:\/\/www.agtrials.org\/tbtrial\/1817"},{"name":"International Rice Bacterial Blight Nursery 2007\/set 17","crop":"Rice","country":"Nepal","sow_date":"","longitude":"85.92","latitude":"26.73","url":"http:\/\/www.agtrials.org\/tbtrial\/1809"},{"name":"International Rice Soil Stress Tolerance  Nursery 2007\/set 42","crop":"Rice","country":"Bangladesh","sow_date":"","longitude":"89.1","latitude":"22.716667","url":"http:\/\/www.agtrials.org\/tbtrial\/1831"},{"name":"International Upland Rice Observational Nursery 2008\/set 6","crop":"Rice","country":"India","sow_date":"","longitude":"72.903889","latitude":"20.926667","url":"http:\/\/www.agtrials.org\/tbtrial\/1774"},{"name":"International Rainfed Lowland Rice Observational Nursery 2007\/set 3","crop":"Rice","country":"India","sow_date":"8\/24\/2007","longitude":"79.483611","latitude":"11.016944","url":"http:\/\/www.agtrials.org\/tbtrial\/1820"},{"name":"International Rice Soil Stress Tolerance Nursery - Module 2a 2008\/set 10","crop":"Rice","country":"Pakistan","sow_date":"","longitude":"73.24166667","latitude":"34.13777778","url":"http:\/\/www.agtrials.org\/tbtrial\/1762"},{"name":"International Temperate Rice Observational Nursery 2008\/set 25","crop":"Rice","country":"Bangladesh","sow_date":"11\/9\/2008","longitude":"89.25","latitude":"25.75","url":"http:\/\/www.agtrials.org\/tbtrial\/1769"},{"name":"Ravageurs Cl\u00e9s Des \u00e9cologies Rizicoles Du B\u00e9nin Et Impacts","crop":"Rice","country":"Benin","sow_date":"2\/1\/2006","longitude":"2.281807","latitude":"7.241709","url":"http:\/\/www.agtrials.org\/tbtrial\/686"},{"name":"International Rice Soil Stress Tolerance Nursery - Module 1a 2008\/set 9","crop":"Rice","country":"Pakistan","sow_date":"","longitude":"73.24166667","latitude":"34.13777778","url":"http:\/\/www.agtrials.org\/tbtrial\/1752"},{"name":"International Rice Soil Stress Tolerance Nursery - Module 1a 2008\/set 18","crop":"Rice","country":"Bangladesh","sow_date":"","longitude":"89.1","latitude":"22.716667","url":"http:\/\/www.agtrials.org\/tbtrial\/1753"},{"name":"International Irrigated Rice Observational Nursery - Module 1 2008\/set 49","crop":"Rice","country":"India","sow_date":"6\/26\/2009","longitude":"79.643889","latitude":"29.589167","url":"http:\/\/www.agtrials.org\/tbtrial\/1710"},{"name":"Devising Selection Strategies For Rice In The Event Of Significant Genotype \u00d7 Environment Interaction For Yield","crop":"Rice","country":"Gambia","sow_date":"5\/24\/1999","longitude":"-14.85","latitude":"13.55","url":"http:\/\/www.agtrials.org\/tbtrial\/1270"},{"name":"Long-term Fertility Experiments","crop":"Rice","country":"Senegal","sow_date":"3\/1\/1991","longitude":"-16.264167","latitude":"16.200833","url":"http:\/\/www.agtrials.org\/tbtrial\/639"},{"name":"Ravageurs Cl\u00e9s Des \u00e9cologies Rizicoles Du B\u00e9nin Et Impacts","crop":"Rice","country":"Benin","sow_date":"1\/31\/2006","longitude":"1.665556","latitude":"6.763056","url":"http:\/\/www.agtrials.org\/tbtrial\/688"},{"name":"Etude Des Insectes De Stock De Riz Et Leurs Degats Au Benin","crop":"Rice","country":"Benin","sow_date":"2\/1\/2007","longitude":"2.505278","latitude":"6.631667","url":"http:\/\/www.agtrials.org\/tbtrial\/684"},{"name":"Etude Des Insectes De Stock De Riz Et Leurs Degats Au Benin","crop":"Rice","country":"Benin","sow_date":"2\/1\/2007","longitude":"2.167222","latitude":"7.979167","url":"http:\/\/www.agtrials.org\/tbtrial\/685"},{"name":"International Rice Soil Stress Tolerance Nursery - Module 2 2009\/set 11","crop":"Rice","country":"India","sow_date":"","longitude":"79.714722","latitude":"11.389167","url":"http:\/\/www.agtrials.org\/tbtrial\/883"},{"name":"Etude Des Insectes De Stock De Riz Et Leurs Degats Au Benin","crop":"Rice","country":"Benin","sow_date":"2\/1\/2007","longitude":"1.665556","latitude":"6.763056","url":"http:\/\/www.agtrials.org\/tbtrial\/683"},{"name":"Etude Des Insectes De Stock De Riz Et Leurs D\u00e9g\u00e2ts Au B\u00e9nin","crop":"Rice","country":"Benin","sow_date":"2\/1\/2007","longitude":"2.281807","latitude":"7.241709","url":"http:\/\/www.agtrials.org\/tbtrial\/660"},{"name":"International Rice Bacterial Blight Nursery 2009\/set 30","crop":"Rice","country":"Bangladesh","sow_date":"","longitude":"90.407778","latitude":"23.990833","url":"http:\/\/www.agtrials.org\/tbtrial\/892"},{"name":"Etude Des Insectes De Stock De Riz Et Leurs D\u00e9g\u00e2ts Au B\u00e9nin","crop":"Rice","country":"Benin","sow_date":"2\/1\/2007","longitude":"1.666944","latitude":"7.185","url":"http:\/\/www.agtrials.org\/tbtrial\/659"},{"name":"Aerobic Rice","crop":"Rice","country":"Senegal","sow_date":"3\/18\/2005","longitude":"-16.264167","latitude":"16.200833","url":"http:\/\/www.agtrials.org\/tbtrial\/637"},{"name":"Aerobic Rice","crop":"Rice","country":"Senegal","sow_date":"9\/1\/2005","longitude":"-15.183333","latitude":"16.533333","url":"http:\/\/www.agtrials.org\/tbtrial\/638"},{"name":"Input + Yields-file All Seasons","crop":"Rice","country":"Senegal","sow_date":"","longitude":"-16.264167","latitude":"16.200833","url":"http:\/\/www.agtrials.org\/tbtrial\/4141"},{"name":"Lab-results Etc. Fanaye","crop":"Rice","country":"Senegal","sow_date":"","longitude":"-15.183333","latitude":"16.533333","url":"http:\/\/www.agtrials.org\/tbtrial\/4142"},{"name":"Lab-results Etc. Ndiaye","crop":"Rice","country":"Senegal","sow_date":"","longitude":"-16.264167","latitude":"16.200833","url":"http:\/\/www.agtrials.org\/tbtrial\/4143"},{"name":"Etude Des Insectes De Stock De Riz Et Leurs D\u00e9g\u00e2ts Au B\u00e9nin","crop":"Rice","country":"Benin","sow_date":"2\/1\/2007","longitude":"2.279148","latitude":"7.266684","url":"http:\/\/www.agtrials.org\/tbtrial\/661"},{"name":"Input + Yields File All Seasons","crop":"Rice","country":"Senegal","sow_date":"","longitude":"-15.183333","latitude":"16.533333","url":"http:\/\/www.agtrials.org\/tbtrial\/4140"},{"name":"International Rice Bacterial Blight Nursery 2005\/set 14","crop":"Rice","country":"Nepal","sow_date":"6\/26\/2005","longitude":"85.92","latitude":"26.73","url":"http:\/\/www.agtrials.org\/tbtrial\/2973"},{"name":"International Rice Heat Tolerance Nursery 2008\/set 4","crop":"Rice","country":"India","sow_date":"5\/20\/2008","longitude":"79.714722","latitude":"11.389167","url":"http:\/\/www.agtrials.org\/tbtrial\/1737"},{"name":"International Rice Soil Stress Tolerance  Nursery 2006\/set 42","crop":"Rice","country":"Bangladesh","sow_date":"11\/15\/2006","longitude":"89.1","latitude":"22.716667","url":"http:\/\/www.agtrials.org\/tbtrial\/1895"},{"name":"Use Of Cover Crops And Rock P On Upland Rice","crop":"Rice","country":"Cote D'Ivoire","sow_date":"4\/1\/2001","longitude":"-8.153611","latitude":"7.260833","url":"http:\/\/www.agtrials.org\/tbtrial\/753"},{"name":"Etude Des Insectes De  Stock De Riz Et Leurs D\u00e9g\u00e2ts Au B\u00e9nin","crop":"Rice","country":"Benin","sow_date":"2\/1\/2007","longitude":"2.328889","latitude":"6.419722","url":"http:\/\/www.agtrials.org\/tbtrial\/665"},{"name":"Etude Des Insectes De  Stock De Riz Et Leurs D\u00e9g\u00e2ts Au B\u00e9nin","crop":"Rice","country":"Benin","sow_date":"2\/1\/2007","longitude":"3.431667","latitude":"11.855278","url":"http:\/\/www.agtrials.org\/tbtrial\/664"},{"name":"Consumer Sensory Tests","crop":"Rice","country":"Benin","sow_date":"8\/24\/2009","longitude":"1.708333","latitude":"6.600278","url":"http:\/\/www.agtrials.org\/tbtrial\/651"},{"name":"International Rice Bacterial Blight Nursery 2007\/set 27","crop":"Rice","country":"Bangladesh","sow_date":"7\/1\/2007","longitude":"90.407778","latitude":"23.990833","url":"http:\/\/www.agtrials.org\/tbtrial\/1813"},{"name":"Long-term Fertility Experiments","crop":"Rice","country":"Senegal","sow_date":"3\/1\/1991","longitude":"-15.183333","latitude":"16.533333","url":"http:\/\/www.agtrials.org\/tbtrial\/640"},{"name":"Importance Of Bacterial Leaf Blight","crop":"Rice","country":"Mali","sow_date":"6\/1\/2004","longitude":"-8.000556","latitude":"12.650556","url":"http:\/\/www.agtrials.org\/tbtrial\/1015"}]